sample,time_s,sensor,message_type,yaw_deg,pitch_deg,roll_deg,mag_x,mag_y,mag_z,accel_x,accel_y,accel_z,gyro_x,gyro_y,gyro_z,gps_time_s,gps_week,ins_status,latitude_deg,longitude_deg,altitude_m,vel_n_mps,vel_e_mps,vel_d_mps,raw_message
0,0.0001816200001485413,vn200,VNINS,-80.246,-5.357,-1.08,,,,,,,,,,1052.726256,0000,B080,0.0,0.0,0.0,0.0,0.0,0.0,"$VNINS,001052.726256,0000,B080,-080.246,-005.357,-001.080,+00.00000000,+000.00000000,+00000.000,+000.000,+000.000,+000.000,99.99,99.99,9.999*28"
1,0.04005881600005523,vn200,VNINS,-80.246,-5.358,-1.08,,,,,,,,,,1052.751257,0000,B080,0.0,0.0,0.0,0.0,0.0,0.0,"$VNINS,001052.751257,0000,B080,-080.246,-005.358,-001.080,+00.00000000,+000.00000000,+00000.000,+000.000,+000.000,+000.000,99.99,99.99,9.999*26"
2,0.08005703699996047,vn200,VNINS,-80.247,-5.358,-1.079,,,,,,,,,,1052.776257,0000,1080,0.0,0.0,0.0,0.0,0.0,0.0,"$VNINS,001052.776257,0000,1080,-080.247,-005.358,-001.079,+00.00000000,+000.00000000,+00000.000,+000.000,+000.000,+000.000,99.99,99.99,9.999*57"
3,0.12005653500000335,vn200,VNINS,-80.247,-5.357,-1.079,,,,,,,,,,1052.801257,0000,1080,0.0,0.0,0.0,0.0,0.0,0.0,"$VNINS,001052.801257,0000,1080,-080.247,-005.357,-001.079,+00.00000000,+000.00000000,+00000.000,+000.000,+000.000,+000.000,99.99,99.99,9.999*57"
4,0.16005558899996686,vn200,VNINS,-80.247,-5.357,-1.079,,,,,,,,,,1052.826256,0000,8880,0.0,0.0,0.0,0.0,0.0,0.0,"$VNINS,001052.826256,0000,8880,-080.247,-005.357,-001.079,+00.00000000,+000.00000000,+00000.000,+000.000,+000.000,+000.000,99.99,99.99,9.999*52"
5,0.20005771699993602,vn200,VNINS,-80.247,-5.355,-1.079,,,,,,,,,,1052.851257,0000,8880,0.0,0.0,0.0,0.0,0.0,0.0,"$VNINS,001052.851257,0000,8880,-080.247,-005.355,-001.079,+00.00000000,+000.00000000,+00000.000,+000.000,+000.000,+000.000,99.99,99.99,9.999*51"
6,0.24006012300014845,vn200,VNINS,-80.248,-5.355,-1.079,,,,,,,,,,1052.876257,0000,8880,0.0,0.0,0.0,0.0,0.0,0.0,"$VNINS,001052.876257,0000,8880,-080.248,-005.355,-001.079,+00.00000000,+000.00000000,+00000.000,+000.000,+000.000,+000.000,99.99,99.99,9.999*5B"
7,0.2800586769999427,vn200,VNINS,-80.248,-5.355,-1.08,,,,,,,,,,1052.901257,0000,1880,0.0,0.0,0.0,0.0,0.0,0.0,"$VNINS,001052.901257,0000,1880,-080.248,-005.355,-001.080,+00.00000000,+000.00000000,+00000.000,+000.000,+000.000,+000.000,99.99,99.99,9.999*55"
8,0.320060101000081,vn200,VNINS,-80.249,-5.357,-1.079,,,,,,,,,,1052.926256,0000,1880,0.0,0.0,0.0,0.0,0.0,0.0,"$VNINS,001052.926256,0000,1880,-080.249,-005.357,-001.079,+00.00000000,+000.00000000,+00000.000,+000.000,+000.000,+000.000,99.99,99.99,9.999*54"
9,0.3600594890001503,vn200,VNINS,-80.249,-5.359,-1.079,,,,,,,,,,1052.951257,0000,C080,0.0,0.0,0.0,0.0,0.0,0.0,"$VNINS,001052.951257,0000,C080,-080.249,-005.359,-001.079,+00.00000000,+000.00000000,+00000.000,+000.000,+000.000,+000.000,99.99,99.99,9.999*21"
10,0.4000593570001456,vn200,VNINS,-80.249,-5.358,-1.079,,,,,,,,,,1052.976257,0000,C080,0.0,0.0,0.0,0.0,0.0,0.0,"$VNINS,001052.976257,0000,C080,-080.249,-005.358,-001.079,+00.00000000,+000.00000000,+00000.000,+000.000,+000.000,+000.000,99.99,99.99,9.999*25"
11,0.44005885599995054,vn200,VNINS,-80.249,-5.358,-1.079,,,,,,,,,,1053.001257,0000,5080,0.0,0.0,0.0,0.0,0.0,0.0,"$VNINS,001053.001257,0000,5080,-080.249,-005.358,-001.079,+00.00000000,+000.00000000,+00000.000,+000.000,+000.000,+000.000,99.99,99.99,9.999*5B"
12,0.4800570580000567,vn200,VNINS,-80.248,-5.357,-1.08,,,,,,,,,,1053.026256,0000,5080,0.0,0.0,0.0,0.0,0.0,0.0,"$VNINS,001053.026256,0000,5080,-080.248,-005.357,-001.080,+00.00000000,+000.00000000,+00000.000,+000.000,+000.000,+000.000,99.99,99.99,9.999*57"
13,0.5200583900000311,vn200,VNINS,-80.249,-5.356,-1.08,,,,,,,,,,1053.051257,0000,9880,0.0,0.0,0.0,0.0,0.0,0.0,"$VNINS,001053.051257,0000,9880,-080.249,-005.356,-001.080,+00.00000000,+000.00000000,+00000.000,+000.000,+000.000,+000.000,99.99,99.99,9.999*52"
14,0.5600583880000158,vn200,VNINS,-80.248,-5.356,-1.079,,,,,,,,,,1053.076256,0000,9880,0.0,0.0,0.0,0.0,0.0,0.0,"$VNINS,001053.076256,0000,9880,-080.248,-005.356,-001.079,+00.00000000,+000.00000000,+00000.000,+000.000,+000.000,+000.000,99.99,99.99,9.999*51"
15,0.6000576090000322,vn200,VNINS,-80.247,-5.356,-1.079,,,,,,,,,,1053.101257,0000,7880,0.0,0.0,0.0,0.0,0.0,0.0,"$VNINS,001053.101257,0000,7880,-080.247,-005.356,-001.079,+00.00000000,+000.00000000,+00000.000,+000.000,+000.000,+000.000,99.99,99.99,9.999*50"
16,0.6400560470001437,vn200,VNINS,-80.247,-5.359,-1.08,,,,,,,,,,1053.126256,0000,7880,0.0,0.0,0.0,0.0,0.0,0.0,"$VNINS,001053.126256,0000,7880,-080.247,-005.359,-001.080,+00.00000000,+000.00000000,+00000.000,+000.000,+000.000,+000.000,99.99,99.99,9.999*5D"
17,0.6800595730001078,vn200,VNINS,-80.246,-5.357,-1.08,,,,,,,,,,1053.151257,0000,B080,0.0,0.0,0.0,0.0,0.0,0.0,"$VNINS,001053.151257,0000,B080,-080.246,-005.357,-001.080,+00.00000000,+000.00000000,+00000.000,+000.000,+000.000,+000.000,99.99,99.99,9.999*2E"
18,0.7200615990000188,vn200,VNINS,-80.245,-5.357,-1.08,,,,,,,,,,1053.176257,0000,B080,0.0,0.0,0.0,0.0,0.0,0.0,"$VNINS,001053.176257,0000,B080,-080.245,-005.357,-001.080,+00.00000000,+000.00000000,+00000.000,+000.000,+000.000,+000.000,99.99,99.99,9.999*28"
19,0.7600577549999343,vn200,VNINS,-80.245,-5.358,-1.082,,,,,,,,,,1053.201257,0000,1080,0.0,0.0,0.0,0.0,0.0,0.0,"$VNINS,001053.201257,0000,1080,-080.245,-005.358,-001.082,+00.00000000,+000.00000000,+00000.000,+000.000,+000.000,+000.000,99.99,99.99,9.999*55"
20,0.8000577630000407,vn200,VNINS,-80.244,-5.356,-1.082,,,,,,,,,,1053.226256,0000,1080,0.0,0.0,0.0,0.0,0.0,0.0,"$VNINS,001053.226256,0000,1080,-080.244,-005.356,-001.082,+00.00000000,+000.00000000,+00000.000,+000.000,+000.000,+000.000,99.99,99.99,9.999*5E"
21,0.8400571960000889,vn200,VNINS,-80.244,-5.356,-1.082,,,,,,,,,,1053.251257,0000,8880,0.0,0.0,0.0,0.0,0.0,0.0,"$VNINS,001053.251257,0000,8880,-080.244,-005.356,-001.082,+00.00000000,+000.00000000,+00000.000,+000.000,+000.000,+000.000,99.99,99.99,9.999*5E"
22,0.8800655560000905,vn200,VNINS,-80.244,-5.356,-1.081,,,,,,,,,,1053.276256,0000,8880,0.0,0.0,0.0,0.0,0.0,0.0,"$VNINS,001053.276256,0000,8880,-080.244,-005.356,-001.081,+00.00000000,+000.00000000,+00000.000,+000.000,+000.000,+000.000,99.99,99.99,9.999*59"
23,0.9200578780000797,vn200,VNINS,-80.245,-5.355,-1.081,,,,,,,,,,1053.301257,0000,8880,0.0,0.0,0.0,0.0,0.0,0.0,"$VNINS,001053.301257,0000,8880,-080.245,-005.355,-001.081,+00.00000000,+000.00000000,+00000.000,+000.000,+000.000,+000.000,99.99,99.99,9.999*5B"
24,0.9600591079999958,vn200,VNINS,-80.246,-5.355,-1.079,,,,,,,,,,1053.326257,0000,1880,0.0,0.0,0.0,0.0,0.0,0.0,"$VNINS,001053.326257,0000,1880,-080.246,-005.355,-001.079,+00.00000000,+000.00000000,+00000.000,+000.000,+000.000,+000.000,99.99,99.99,9.999*53"
25,1.0000593750000917,vn200,VNINS,-80.246,-5.358,-1.08,,,,,,,,,,1053.351257,0000,1880,0.0,0.0,0.0,0.0,0.0,0.0,"$VNINS,001053.351257,0000,1880,-080.246,-005.358,-001.080,+00.00000000,+000.00000000,+00000.000,+000.000,+000.000,+000.000,99.99,99.99,9.999*58"
26,1.040060234000066,vn200,VNINS,-80.246,-5.357,-1.081,,,,,,,,,,1053.376257,0000,C080,0.0,0.0,0.0,0.0,0.0,0.0,"$VNINS,001053.376257,0000,C080,-080.246,-005.357,-001.081,+00.00000000,+000.00000000,+00000.000,+000.000,+000.000,+000.000,99.99,99.99,9.999*29"
27,1.0800591859999713,vn200,VNINS,-80.246,-5.357,-1.082,,,,,,,,,,1053.401257,0000,C080,0.0,0.0,0.0,0.0,0.0,0.0,"$VNINS,001053.401257,0000,C080,-080.246,-005.357,-001.082,+00.00000000,+000.00000000,+00000.000,+000.000,+000.000,+000.000,99.99,99.99,9.999*2D"
28,1.1200597680001465,vn200,VNINS,-80.245,-5.358,-1.081,,,,,,,,,,1053.426257,0000,5080,0.0,0.0,0.0,0.0,0.0,0.0,"$VNINS,001053.426257,0000,5080,-080.245,-005.358,-001.081,+00.00000000,+000.00000000,+00000.000,+000.000,+000.000,+000.000,99.99,99.99,9.999*51"
29,1.1600595160000466,vn200,VNINS,-80.244,-5.359,-1.08,,,,,,,,,,1053.451257,0000,5080,0.0,0.0,0.0,0.0,0.0,0.0,"$VNINS,001053.451257,0000,5080,-080.244,-005.359,-001.080,+00.00000000,+000.00000000,+00000.000,+000.000,+000.000,+000.000,99.99,99.99,9.999*50"
30,1.200058246000026,vn200,VNINS,-80.244,-5.359,-1.081,,,,,,,,,,1053.476256,0000,9880,0.0,0.0,0.0,0.0,0.0,0.0,"$VNINS,001053.476256,0000,9880,-080.244,-005.359,-001.081,+00.00000000,+000.00000000,+00000.000,+000.000,+000.000,+000.000,99.99,99.99,9.999*51"
31,1.2400589200001377,vn200,VNINS,-80.244,-5.358,-1.082,,,,,,,,,,1053.501257,0000,9880,0.0,0.0,0.0,0.0,0.0,0.0,"$VNINS,001053.501257,0000,9880,-080.244,-005.358,-001.082,+00.00000000,+000.00000000,+00000.000,+000.000,+000.000,+000.000,99.99,99.99,9.999*53"
32,1.280057854000006,vn200,VNINS,-80.244,-5.36,-1.082,,,,,,,,,,1053.526257,0000,7880,0.0,0.0,0.0,0.0,0.0,0.0,"$VNINS,001053.526257,0000,7880,-080.244,-005.360,-001.082,+00.00000000,+000.00000000,+00000.000,+000.000,+000.000,+000.000,99.99,99.99,9.999*53"
33,1.320057897999959,vn200,VNINS,-80.244,-5.362,-1.081,,,,,,,,,,1053.551257,0000,7880,0.0,0.0,0.0,0.0,0.0,0.0,"$VNINS,001053.551257,0000,7880,-080.244,-005.362,-001.081,+00.00000000,+000.00000000,+00000.000,+000.000,+000.000,+000.000,99.99,99.99,9.999*52"
34,1.3600582020001184,vn200,VNINS,-80.244,-5.362,-1.081,,,,,,,,,,1053.576256,0000,B080,0.0,0.0,0.0,0.0,0.0,0.0,"$VNINS,001053.576256,0000,B080,-080.244,-005.362,-001.081,+00.00000000,+000.00000000,+00000.000,+000.000,+000.000,+000.000,99.99,99.99,9.999*2B"
35,1.4000566540000818,vn200,VNINS,-80.244,-5.361,-1.081,,,,,,,,,,1053.601257,0000,B080,0.0,0.0,0.0,0.0,0.0,0.0,"$VNINS,001053.601257,0000,B080,-080.244,-005.361,-001.081,+00.00000000,+000.00000000,+00000.000,+000.000,+000.000,+000.000,99.99,99.99,9.999*2A"
36,1.4400578100000985,vn200,VNINS,-80.244,-5.359,-1.081,,,,,,,,,,1053.626257,0000,1080,0.0,0.0,0.0,0.0,0.0,0.0,"$VNINS,001053.626257,0000,1080,-080.244,-005.359,-001.081,+00.00000000,+000.00000000,+00000.000,+000.000,+000.000,+000.000,99.99,99.99,9.999*57"
37,1.480057669999951,vn200,VNINS,-80.243,-5.36,-1.082,,,,,,,,,,1053.651257,0000,1080,0.0,0.0,0.0,0.0,0.0,0.0,"$VNINS,001053.651257,0000,1080,-080.243,-005.360,-001.082,+00.00000000,+000.00000000,+00000.000,+000.000,+000.000,+000.000,99.99,99.99,9.999*59"
38,1.5200599370000418,vn200,VNINS,-80.241,-5.36,-1.082,,,,,,,,,,1053.676257,0000,8880,0.0,0.0,0.0,0.0,0.0,0.0,"$VNINS,001053.676257,0000,8880,-080.241,-005.360,-001.082,+00.00000000,+000.00000000,+00000.000,+000.000,+000.000,+000.000,99.99,99.99,9.999*5F"
39,1.5600600370000848,vn200,VNINS,-80.24,-5.361,-1.082,,,,,,,,,,1053.701257,0000,8880,0.0,0.0,0.0,0.0,0.0,0.0,"$VNINS,001053.701257,0000,8880,-080.240,-005.361,-001.082,+00.00000000,+000.00000000,+00000.000,+000.000,+000.000,+000.000,99.99,99.99,9.999*5E"
40,1.600057895999953,vn200,VNINS,-80.24,-5.361,-1.083,,,,,,,,,,1053.726256,0000,1880,0.0,0.0,0.0,0.0,0.0,0.0,"$VNINS,001053.726256,0000,1880,-080.240,-005.361,-001.083,+00.00000000,+000.00000000,+00000.000,+000.000,+000.000,+000.000,99.99,99.99,9.999*52"
41,1.6400596220000807,vn200,VNINS,-80.239,-5.36,-1.082,,,,,,,,,,1053.751257,0000,1880,0.0,0.0,0.0,0.0,0.0,0.0,"$VNINS,001053.751257,0000,1880,-080.239,-005.360,-001.082,+00.00000000,+000.00000000,+00000.000,+000.000,+000.000,+000.000,99.99,99.99,9.999*5D"
42,1.6800579360001393,vn200,VNINS,-80.238,-5.36,-1.082,,,,,,,,,,1053.776257,0000,1880,0.0,0.0,0.0,0.0,0.0,0.0,"$VNINS,001053.776257,0000,1880,-080.238,-005.360,-001.082,+00.00000000,+000.00000000,+00000.000,+000.000,+000.000,+000.000,99.99,99.99,9.999*59"
43,1.7200602299999446,vn200,VNINS,-80.239,-5.361,-1.081,,,,,,,,,,1053.801257,0000,C080,0.0,0.0,0.0,0.0,0.0,0.0,"$VNINS,001053.801257,0000,C080,-080.239,-005.361,-001.081,+00.00000000,+000.00000000,+00000.000,+000.000,+000.000,+000.000,99.99,99.99,9.999*2F"
44,1.7600598950000403,vn200,VNINS,-80.239,-5.36,-1.08,,,,,,,,,,1053.826257,0000,C080,0.0,0.0,0.0,0.0,0.0,0.0,"$VNINS,001053.826257,0000,C080,-080.239,-005.360,-001.080,+00.00000000,+000.00000000,+00000.000,+000.000,+000.000,+000.000,99.99,99.99,9.999*2A"
45,1.8000589680000303,vn200,VNINS,-80.237,-5.36,-1.08,,,,,,,,,,1053.851257,0000,5080,0.0,0.0,0.0,0.0,0.0,0.0,"$VNINS,001053.851257,0000,5080,-080.237,-005.360,-001.080,+00.00000000,+000.00000000,+00000.000,+000.000,+000.000,+000.000,99.99,99.99,9.999*52"
46,1.840058744000089,vn200,VNINS,-80.238,-5.36,-1.079,,,,,,,,,,1053.876257,0000,5080,0.0,0.0,0.0,0.0,0.0,0.0,"$VNINS,001053.876257,0000,5080,-080.238,-005.360,-001.079,+00.00000000,+000.00000000,+00000.000,+000.000,+000.000,+000.000,99.99,99.99,9.999*5E"
47,1.8800569090001318,vn200,VNINS,-80.237,-5.361,-1.079,,,,,,,,,,1053.901257,0000,9880,0.0,0.0,0.0,0.0,0.0,0.0,"$VNINS,001053.901257,0000,9880,-080.237,-005.361,-001.079,+00.00000000,+000.00000000,+00000.000,+000.000,+000.000,+000.000,99.99,99.99,9.999*55"
48,1.9200579260000268,vn200,VNINS,-80.238,-5.361,-1.08,,,,,,,,,,1053.926257,0000,9880,0.0,0.0,0.0,0.0,0.0,0.0,"$VNINS,001053.926257,0000,9880,-080.238,-005.361,-001.080,+00.00000000,+000.00000000,+00000.000,+000.000,+000.000,+000.000,99.99,99.99,9.999*59"
49,1.9600602200000594,vn200,VNINS,-80.239,-5.361,-1.079,,,,,,,,,,1053.951257,0000,7880,0.0,0.0,0.0,0.0,0.0,0.0,"$VNINS,001053.951257,0000,7880,-080.239,-005.361,-001.079,+00.00000000,+000.00000000,+00000.000,+000.000,+000.000,+000.000,99.99,99.99,9.999*50"
50,2.0000600700000177,vn200,VNINS,-80.238,-5.36,-1.079,,,,,,,,,,1053.976257,0000,7880,0.0,0.0,0.0,0.0,0.0,0.0,"$VNINS,001053.976257,0000,7880,-080.238,-005.360,-001.079,+00.00000000,+000.00000000,+00000.000,+000.000,+000.000,+000.000,99.99,99.99,9.999*55"
51,2.0400578280000445,vn200,VNINS,-80.238,-5.361,-1.079,,,,,,,,,,1054.001257,0000,B080,0.0,0.0,0.0,0.0,0.0,0.0,"$VNINS,001054.001257,0000,B080,-080.238,-005.361,-001.079,+00.00000000,+000.00000000,+00000.000,+000.000,+000.000,+000.000,99.99,99.99,9.999*27"
52,2.080059771000151,vn200,VNINS,-80.239,-5.36,-1.079,,,,,,,,,,1054.026256,0000,B080,0.0,0.0,0.0,0.0,0.0,0.0,"$VNINS,001054.026256,0000,B080,-080.239,-005.360,-001.079,+00.00000000,+000.00000000,+00000.000,+000.000,+000.000,+000.000,99.99,99.99,9.999*23"
53,2.1200617320000674,vn200,VNINS,-80.238,-5.361,-1.078,,,,,,,,,,1054.051257,0000,1080,0.0,0.0,0.0,0.0,0.0,0.0,"$VNINS,001054.051257,0000,1080,-080.238,-005.361,-001.078,+00.00000000,+000.00000000,+00000.000,+000.000,+000.000,+000.000,99.99,99.99,9.999*50"
54,2.1600571379999565,vn200,VNINS,-80.24,-5.36,-1.079,,,,,,,,,,1054.076257,0000,1080,0.0,0.0,0.0,0.0,0.0,0.0,"$VNINS,001054.076257,0000,1080,-080.240,-005.360,-001.079,+00.00000000,+000.00000000,+00000.000,+000.000,+000.000,+000.000,99.99,99.99,9.999*5A"
55,2.20005650600001,vn200,VNINS,-80.24,-5.361,-1.078,,,,,,,,,,1054.101259,0000,8880,0.0,0.0,0.0,0.0,0.0,0.0,"$VNINS,001054.101259,0000,8880,-080.240,-005.361,-001.078,+00.00000000,+000.00000000,+00000.000,+000.000,+000.000,+000.000,99.99,99.99,9.999*54"
56,2.2400655609999376,vn200,VNINS,-80.239,-5.361,-1.079,,,,,,,,,,1054.126257,0000,8880,0.0,0.0,0.0,0.0,0.0,0.0,"$VNINS,001054.126257,0000,8880,-080.239,-005.361,-001.079,+00.00000000,+000.00000000,+00000.000,+000.000,+000.000,+000.000,99.99,99.99,9.999*50"
57,2.2800580400000854,vn200,VNINS,-80.24,-5.36,-1.08,,,,,,,,,,1054.151257,0000,1880,0.0,0.0,0.0,0.0,0.0,0.0,"$VNINS,001054.151257,0000,1880,-080.240,-005.360,-001.080,+00.00000000,+000.00000000,+00000.000,+000.000,+000.000,+000.000,99.99,99.99,9.999*50"
58,2.3200577420000172,vn200,VNINS,-80.24,-5.36,-1.08,,,,,,,,,,1054.176257,0000,1880,0.0,0.0,0.0,0.0,0.0,0.0,"$VNINS,001054.176257,0000,1880,-080.240,-005.360,-001.080,+00.00000000,+000.00000000,+00000.000,+000.000,+000.000,+000.000,99.99,99.99,9.999*55"
59,2.360062647999939,vn200,VNINS,-80.24,-5.359,-1.08,,,,,,,,,,1054.201257,0000,C080,0.0,0.0,0.0,0.0,0.0,0.0,"$VNINS,001054.201257,0000,C080,-080.240,-005.359,-001.080,+00.00000000,+000.00000000,+00000.000,+000.000,+000.000,+000.000,99.99,99.99,9.999*26"
60,2.400058016999992,vn200,VNINS,-80.243,-5.358,-1.08,,,,,,,,,,1054.226256,0000,C080,0.0,0.0,0.0,0.0,0.0,0.0,"$VNINS,001054.226256,0000,C080,-080.243,-005.358,-001.080,+00.00000000,+000.00000000,+00000.000,+000.000,+000.000,+000.000,99.99,99.99,9.999*20"
61,2.440057625999998,vn200,VNINS,-80.242,-5.358,-1.079,,,,,,,,,,1054.251257,0000,5080,0.0,0.0,0.0,0.0,0.0,0.0,"$VNINS,001054.251257,0000,5080,-080.242,-005.358,-001.079,+00.00000000,+000.00000000,+00000.000,+000.000,+000.000,+000.000,99.99,99.99,9.999*50"
62,2.480057550000083,vn200,VNINS,-80.241,-5.357,-1.079,,,,,,,,,,1054.276257,0000,5080,0.0,0.0,0.0,0.0,0.0,0.0,"$VNINS,001054.276257,0000,5080,-080.241,-005.357,-001.079,+00.00000000,+000.00000000,+00000.000,+000.000,+000.000,+000.000,99.99,99.99,9.999*59"
63,2.5200582520001262,vn200,VNINS,-80.24,-5.356,-1.079,,,,,,,,,,1054.301257,0000,5080,0.0,0.0,0.0,0.0,0.0,0.0,"$VNINS,001054.301257,0000,5080,-080.240,-005.356,-001.079,+00.00000000,+000.00000000,+00000.000,+000.000,+000.000,+000.000,99.99,99.99,9.999*58"
64,2.5600555099999838,vn200,VNINS,-80.24,-5.357,-1.079,,,,,,,,,,1054.326256,0000,9880,0.0,0.0,0.0,0.0,0.0,0.0,"$VNINS,001054.326256,0000,9880,-080.240,-005.357,-001.079,+00.00000000,+000.00000000,+00000.000,+000.000,+000.000,+000.000,99.99,99.99,9.999*59"
65,2.60005771200008,vn200,VNINS,-80.24,-5.355,-1.079,,,,,,,,,,1054.351257,0000,9880,0.0,0.0,0.0,0.0,0.0,0.0,"$VNINS,001054.351257,0000,9880,-080.240,-005.355,-001.079,+00.00000000,+000.00000000,+00000.000,+000.000,+000.000,+000.000,99.99,99.99,9.999*5A"
66,2.6400576510000064,vn200,VNINS,-80.241,-5.356,-1.079,,,,,,,,,,1054.376257,0000,7880,0.0,0.0,0.0,0.0,0.0,0.0,"$VNINS,001054.376257,0000,7880,-080.241,-005.356,-001.079,+00.00000000,+000.00000000,+00000.000,+000.000,+000.000,+000.000,99.99,99.99,9.999*53"
67,2.6800593440000284,vn200,VNINS,-80.241,-5.356,-1.081,,,,,,,,,,1054.401257,0000,7880,0.0,0.0,0.0,0.0,0.0,0.0,"$VNINS,001054.401257,0000,7880,-080.241,-005.356,-001.081,+00.00000000,+000.00000000,+00000.000,+000.000,+000.000,+000.000,99.99,99.99,9.999*53"
68,2.720058889000029,vn200,VNINS,-80.241,-5.356,-1.08,,,,,,,,,,1054.426256,0000,B080,0.0,0.0,0.0,0.0,0.0,0.0,"$VNINS,001054.426256,0000,B080,-080.241,-005.356,-001.080,+00.00000000,+000.00000000,+00000.000,+000.000,+000.000,+000.000,99.99,99.99,9.999*2B"
69,2.7600574150001194,vn200,VNINS,-80.24,-5.355,-1.079,,,,,,,,,,1054.451257,0000,B080,0.0,0.0,0.0,0.0,0.0,0.0,"$VNINS,001054.451257,0000,B080,-080.240,-005.355,-001.079,+00.00000000,+000.00000000,+00000.000,+000.000,+000.000,+000.000,99.99,99.99,9.999*2E"
70,2.8000587740000356,vn200,VNINS,-80.241,-5.354,-1.078,,,,,,,,,,1054.476257,0000,1080,0.0,0.0,0.0,0.0,0.0,0.0,"$VNINS,001054.476257,0000,1080,-080.241,-005.354,-001.078,+00.00000000,+000.00000000,+00000.000,+000.000,+000.000,+000.000,99.99,99.99,9.999*59"
71,2.8400583000000097,vn200,VNINS,-80.241,-5.354,-1.078,,,,,,,,,,1054.501257,0000,1080,0.0,0.0,0.0,0.0,0.0,0.0,"$VNINS,001054.501257,0000,1080,-080.241,-005.354,-001.078,+00.00000000,+000.00000000,+00000.000,+000.000,+000.000,+000.000,99.99,99.99,9.999*58"
72,2.880057604000058,vn200,VNINS,-80.242,-5.354,-1.079,,,,,,,,,,1054.526256,0000,8880,0.0,0.0,0.0,0.0,0.0,0.0,"$VNINS,001054.526256,0000,8880,-080.242,-005.354,-001.079,+00.00000000,+000.00000000,+00000.000,+000.000,+000.000,+000.000,99.99,99.99,9.999*5F"
73,2.9200570749999315,vn200,VNINS,-80.241,-5.354,-1.078,,,,,,,,,,1054.551257,0000,8880,0.0,0.0,0.0,0.0,0.0,0.0,"$VNINS,001054.551257,0000,8880,-080.241,-005.354,-001.078,+00.00000000,+000.00000000,+00000.000,+000.000,+000.000,+000.000,99.99,99.99,9.999*5C"
74,2.960075824000114,vn200,VNINS,-80.241,-5.355,-1.077,,,,,,,,,,1054.576257,0000,1880,0.0,0.0,0.0,0.0,0.0,0.0,"$VNINS,001054.576257,0000,1880,-080.241,-005.355,-001.077,+00.00000000,+000.00000000,+00000.000,+000.000,+000.000,+000.000,99.99,99.99,9.999*5E"
75,3.000061331000097,vn200,VNINS,-80.241,-5.354,-1.076,,,,,,,,,,1054.601257,0000,1880,0.0,0.0,0.0,0.0,0.0,0.0,"$VNINS,001054.601257,0000,1880,-080.241,-005.354,-001.076,+00.00000000,+000.00000000,+00000.000,+000.000,+000.000,+000.000,99.99,99.99,9.999*5D"
76,3.0400592830001187,vn200,VNINS,-80.242,-5.354,-1.075,,,,,,,,,,1054.626256,0000,C080,0.0,0.0,0.0,0.0,0.0,0.0,"$VNINS,001054.626256,0000,C080,-080.242,-005.354,-001.075,+00.00000000,+000.00000000,+00000.000,+000.000,+000.000,+000.000,99.99,99.99,9.999*23"
77,3.0800575680000293,vn200,VNINS,-80.242,-5.353,-1.074,,,,,,,,,,1054.651257,00 00,C080,0.0,0.0,,0.0,0.0,0.0,"$VNINS,001054.651257,00 00,C080,-080.242,-005.353,-001.074,+00.00000000,+000.00000000, +00000.000,+000.000,+000.000,+000.000,99.99,99.99,9.999*24"
78,3.1200592610000513,vn200,VNINS,-80.242,-5.353,-1.074,,,,,,,,,,1054.676257,0000,5080,0.0,0.0,0.0,0.0,0.0,0.0,"$VNINS,001054.676257,0000,5080,-080.242,-005.353,-001.074,+00.00000000,+000.00000000,+00000.000,+000.000,+000.000,+000.000,99.99,99.999.99,9.999*56"
79,3.160058935000052,vn200,VNINS,-80.241,-5.355,-1.07,,,,,,,,,,1055.776257,0000,8080,0.0,0.0,0.0,0.0,0.0,0.0,"$VNINS,001055.776257,0000,8080,-080.241,-005.355,-001.070,+00.00000000,+000.00000000,+00000.000,+000.000,+000.000,+000.000,99.99,99.99,9.999*5B"
80,3.2000574240000788,vn200,VNINS,-80.242,-5.355,-1.07,,,,,,,,,,1055.801257,0000,8080,0.0,0.0,0.0,0.0,0.0,0.0,"$VNINS,001055.801257,0000,8080,-080.242,-005.355,-001.070,+00.00000000,+000.00000000,+00000.000,+000.000,+000.000,+000.000,99.99,99.99,9.999*57"
81,3.2400610060001327,vn200,VNINS,-80.242,-5.355,-1.07,,,,,,,,,,1055.826256,0000,8080,0.0,0.0,0.0,0.0,0.0,0.0,"$VNINS,001055.826256,0000,8080,-080.242,-005.355,-001.070,+00.00000000,+000.00000000,+00000.000,+000.000,+000.000,+000.000,99.99,99.99,9.999*53"
82,3.2800664579999648,vn200,VNINS,-80.243,-5.355,-1.07,,,,,,,,,,1055.851257,0000,0080,0.0,0.0,0.0,0.0,0.0,0.0,"$VNINS,001055.851257,0000,0080,-080.243,-005.355,-001.070,+00.00000000,+000.00000000,+00000.000,+000.000,+000.000,+000.000,99.99,99.99,9.999*5B"
83,3.3200614100001076,vn200,VNINS,-80.242,-5.356,-1.071,,,,,,,,,,1055.876257,0000,0080,0.0,0.0,0.0,0.0,0.0,0.0,"$VNINS,001055.876257,0000,0080,-080.242,-005.356,-001.071,+00.00000000,+000.00000000,+00000.000,+000.000,+000.000,+000.000,99.99,99.99,9.999*5D"
84,3.3600596960000075,vn200,VNINS,-80.242,-5.356,-1.07,,,,,,,,,,1055.901257,0000,8080,0.0,0.0,0.0,0.0,0.0,0.0,"$VNINS,001055.901257,0000,8080,-080.242,-005.356,-001.070,+00.00000000,+000.00000000,+00000.000,+000.000,+000.000,+000.000,99.99,99.99,9.999*55"
85,3.400059591999934,vn200,VNINS,-80.242,-5.357,-1.07,,,,,,,,,,1055.926256,0000,8080,0.0,0.0,0.0,0.0,0.0,0.0,"$VNINS,001055.926256,0000,8080,-080.242,-005.357,-001.070,+00.00000000,+000.00000000,+00000.000,+000.000,+000.000,+000.000,99.99,99.99,9.999*50"
86,3.440058747999956,vn200,VNINS,-80.241,-5.358,-1.07,,,,,,,,,,1055.951257,0000,0080,0.0,0.0,0.0,0.0,0.0,0.0,"$VNINS,001055.951257,0000,0080,-080.241,-005.358,-001.070,+00.00000000,+000.00000000,+00000.000,+000.000,+000.000,+000.000,99.99,99.99,9.999*55"
87,3.4800624590000098,vn200,VNINS,-80.241,-5.359,-1.069,,,,,,,,,,1055.976257,0000,0080,0.0,0.0,0.0,0.0,0.0,0.0,"$VNINS,001055.976257,0000,0080,-080.241,-005.359,-001.069,+00.00000000,+000.00000000,+00000.000,+000.000,+000.000,+000.000,99.99,99.99,9.999*59"
88,3.5200592820001475,vn200,VNINS,-80.24,-5.359,-1.07,,,,,,,,,,1056.001257,0000,8080,0.0,0.0,0.0,0.0,0.0,0.0,"$VNINS,001056.001257,0000,8080,-080.240,-005.359,-001.070,+00.00000000,+000.00000000,+00000.000,+000.000,+000.000,+000.000,99.99,99.99,9.999*52"
89,3.560058771000058,vn200,VNINS,-80.24,-5.36,-1.07,,,,,,,,,,1056.026256,0000,8080,0.0,0.0,0.0,0.0,0.0,0.0,"$VNINS,001056.026256,0000,8080,-080.240,-005.360,-001.070,+00.00000000,+000.00000000,+00000.000,+000.000,+000.000,+000.000,99.99,99.99,9.999*5C"
90,3.6000589450000007,vn200,VNINS,-80.24,-5.359,-1.071,,,,,,,,,,1056.051257,0000,2080,0.0,0.0,0.0,0.0,0.0,0.0,"$VNINS,001056.051257,0000,2080,-080.240,-005.359,-001.071,+00.00000000,+000.00000000,+00000.000,+000.000,+000.000,+000.000,99.99,99.99,9.999*5C"
91,3.6400595039999644,vn200,VNINS,-80.24,-5.359,-1.07,,,,,,,,,,1056.076256,0000,2080,0.0,0.0,0.0,0.0,0.0,0.0,"$VNINS,001056.076256,0000,2080,-080.240,-005.359,-001.070,+00.00000000,+000.00000000,+00000.000,+000.000,+000.000,+000.000,99.99,99.99,9.999*59"
92,3.680057372999954,vn200,VNINS,-80.241,-5.36,-1.071,,,,,,,,,,1056.101257,0000,D080,0.0,0.0,0.0,0.0,0.0,0.0,"$VNINS,001056.101257,0000,D080,-080.241,-005.360,-001.071,+00.00000000,+000.00000000,+00000.000,+000.000,+000.000,+000.000,99.99,99.99,9.999*25"
93,3.7200640940000085,vn200,VNINS,-80.241,-5.359,-1.071,,,,,,,,,,1056.126256,0000,D080,0.0,0.0,0.0,0.0,0.0,0.0,"$VNINS,001056.126256,0000,D080,-080.241,-005.359,-001.071,+00.00000000,+000.00000000,+00000.000,+000.000,+000.000,+000.000,99.99,99.99,9.999*2B"
94,3.760060018000104,vn200,VNINS,-80.239,-5.358,-1.071,,,,,,,,,,1056.151257,0000,0080,0.0,0.0,0.0,0.0,0.0,0.0,"$VNINS,001056.151257,0000,0080,-080.239,-005.358,-001.071,+00.00000000,+000.00000000,+00000.000,+000.000,+000.000,+000.000,99.99,99.99,9.999*50"
95,3.8000595529999828,vn200,VNINS,-80.239,-5.358,-1.071,,,,,,,,,,1056.176257,0000,0080,0.0,0.0,0.0,0.0,0.0,0.0,"$VNINS,001056.176257,0000,0080,-080.239,-005.358,-001.071,+00.00000000,+000.00000000,+00000.000,+000.000,+000.000,+000.000,99.99,99.99,9.999*55"
96,3.8400583110001207,vn200,VNINS,-80.24,-5.358,-1.072,,,,,,,,,,1056.201257,0000,B880,0.0,0.0,0.0,0.0,0.0,0.0,"$VNINS,001056.201257,0000,B880,-080.240,-005.358,-001.072,+00.00000000,+000.00000000,+00000.000,+000.000,+000.000,+000.000,99.99,99.99,9.999*21"
97,3.880059754000058,vn200,VNINS,-80.241,-5.358,-1.071,,,,,,,,,,1056.226256,0000,B880,0.0,0.0,0.0,0.0,0.0,0.0,"$VNINS,001056.226256,0000,B880,-080.241,-005.358,-001.071,+00.00000000,+000.00000000,+00000.000,+000.000,+000.000,+000.000,99.99,99.99,9.999*27"
98,3.920057159999942,vn200,VNINS,-80.24,-5.357,-1.071,,,,,,,,,,1056.251257,0000,B880,0.0,0.0,0.0,0.0,0.0,0.0,"$VNINS,001056.251257,0000,B880,-080.240,-005.357,-001.071,+00.00000000,+000.00000000,+00000.000,+000.000,+000.000,+000.000,99.99,99.99,9.999*28"
99,3.9600596950001545,vn200,VNINS,-80.238,-5.357,-1.072,,,,,,,,,,1056.276257,0000,6880,0.0,0.0,0.0,0.0,0.0,0.0,"$VNINS,001056.276257,0000,6880,-080.238,-005.357,-001.072,+00.00000000,+000.00000000,+00000.000,+000.000,+000.000,+000.000,99.99,99.99,9.999*55"
100,4.0000609159999385,vn200,VNINS,-80.237,-5.356,-1.072,,,,,,,,,,1056.301257,0000,6880,0.0,0.0,0.0,0.0,0.0,0.0,"$VNINS,001056.301257,0000,6880,-080.237,-005.356,-001.072,+00.00000000,+000.00000000,+00000.000,+000.000,+000.000,+000.000,99.99,99.99,9.999*5A"
101,4.040056377000155,vn200,VNINS,-80.238,-5.355,-1.071,,,,,,,,,,1056.326256,0000,B880,0.0,0.0,0.0,0.0,0.0,0.0,"$VNINS,001056.326256,0000,B880,-080.238,-005.355,-001.071,+00.00000000,+000.00000000,+00000.000,+000.000,+000.000,+000.000,99.99,99.99,9.999*25"
102,4.0800587090000136,vn200,VNINS,-80.238,-5.356,-1.071,,,,,,,,,,1056.351257,0000,B880,0.0,0.0,0.0,0.0,0.0,0.0,"$VNINS,001056.351257,0000,B880,-080.238,-005.356,-001.071,+00.00000000,+000.00000000,+00000.000,+000.000,+000.000,+000.000,99.99,99.99,9.999*27"
103,4.120060059000025,vn200,VNINS,-80.238,-5.356,-1.072,,,,,,,,,,1056.376257,0000,7880,0.0,0.0,0.0,0.0,0.0,0.0,"$VNINS,001056.376257,0000,7880,-080.238,-005.356,-001.072,+00.00000000,+000.00000000,+00000.000,+000.000,+000.000,+000.000,99.99,99.99,9.999*54"
104,4.1600586130000465,vn200,VNINS,-80.238,-5.355,-1.072,,,,,,,,,,1056.401257,0000,7880,0.0,0.0,0.0,0.0,0.0,0.0,"$VNINS,001056.401257,0000,7880,-080.238,-005.355,-001.072,+00.00000000,+000.00000000,+00000.000,+000.000,+000.000,+000.000,99.99,99.99,9.999*50"
105,4.200057834000063,vn200,VNINS,-80.239,-5.356,-1.072,,,,,,,,,,1056.426256,0000,9880,0.0,0.0,0.0,0.0,0.0,0.0,"$VNINS,001056.426256,0000,9880,-080.239,-005.356,-001.072,+00.00000000,+000.00000000,+00000.000,+000.000,+000.000,+000.000,99.99,99.99,9.999*58"
106,4.240060201999995,vn200,VNINS,-80.239,-5.357,-1.072,,,,,,,,,,1056.451257,0000,9880,0.0,0.0,0.0,0.0,0.0,0.0,"$VNINS,001056.451257,0000,9880,-080.239,-005.357,-001.072,+00.00000000,+000.00000000,+00000.000,+000.000,+000.000,+000.000,99.99,99.99,9.999*58"
107,4.28005886699998,vn200,VNINS,-80.239,-5.357,-1.071,,,,,,,,,,1056.476257,0000,2080,0.0,0.0,0.0,0.0,0.0,0.0,"$VNINS,001056.476257,0000,2080,-080.239,-005.357,-001.071,+00.00000000,+000.00000000,+00000.000,+000.000,+000.000,+000.000,99.99,99.99,9.999*5D"
108,4.320061718000034,vn200,VNINS,-80.239,-5.357,-1.071,,,,,,,,,,1056.501257,0000,2080,0.0,0.0,0.0,0.0,0.0,0.0,"$VNINS,001056.501257,0000,2080,-080.239,-005.357,-001.071,+00.00000000,+000.00000000,+00000.000,+000.000,+000.000,+000.000,99.99,99.99,9.999*5C"
109,4.360058975000129,vn200,VNINS,-80.24,-5.358,-1.071,,,,,,,,,,1056.526256,0000,D080,0.0,0.0,0.0,0.0,0.0,0.0,"$VNINS,001056.526256,0000,D080,-080.240,-005.358,-001.071,+00.00000000,+000.00000000,+00000.000,+000.000,+000.000,+000.000,99.99,99.99,9.999*2F"
110,4.400057954999966,vn200,VNINS,-80.239,-5.358,-1.071,,,,,,,,,,1056.551257,0000,D080,0.0,0.0,0.0,0.0,0.0,0.0,"$VNINS,001056.551257,0000,D080,-080.239,-005.358,-001.071,+00.00000000,+000.00000000,+00000.000,+000.000,+000.000,+000.000,99.99,99.99,9.999*20"
111,4.440059417000157,vn200,VNINS,-80.24,-5.356,-1.071,,,,,,,,,,1056.576257,0000,0080,0.0,0.0,0.0,0.0,0.0,0.0,"$VNINS,001056.576257,0000,0080,-080.240,-005.356,-001.071,+00.00000000,+000.00000000,+00000.000,+000.000,+000.000,+000.000,99.99,99.99,9.999*51"
112,4.4800580260000515,vn200,VNINS,-80.24,-5.354,-1.071,,,,,,,,,,1056.601257,0000,0080,0.0,0.0,0.0,0.0,0.0,0.0,"$VNINS,001056.601257,0000,0080,-080.240,-005.354,-001.071,+00.00000000,+000.00000000,+00000.000,+000.000,+000.000,+000.000,99.99,99.99,9.999*50"
113,4.520060025000021,vn200,VNINS,-80.241,-5.353,-1.071,,,,,,,,,,1056.626256,0000,B880,0.0,0.0,0.0,0.0,0.0,0.0,"$VNINS,001056.626256,0000,B880,-080.241,-005.353,-001.071,+00.00000000,+000.00000000,+00000.000,+000.000,+000.000,+000.000,99.99,99.99,9.999*28"
114,4.560059893000016,vn200,VNINS,-80.241,-5.353,-1.071,,,,,,,,,,1056.651257,0000,B880,0.0,0.0,0.0,0.0,0.0,0.0,"$VNINS,001056.651257,0000,B880,-080.241,-005.353,-001.071,+00.00000000,+000.00000000,+00000.000,+000.000,+000.000,+000.000,99.99,99.99,9.999*29"
115,4.600060966000001,vn200,VNINS,-80.24,-5.353,-1.071,,,,,,,,,,1056.676257,0000,B880,0.0,0.0,0.0,0.0,0.0,0.0,"$VNINS,001056.676257,0000,B880,-080.240,-005.353,-001.071,+00.00000000,+000.00000000,+00000.000,+000.000,+000.000,+000.000,99.99,99.99,9.999*2D"
116,4.6400609410000015,vn200,VNINS,-80.241,-5.352,-1.07,,,,,,,,,,1056.701257,0000,6880,0.0,0.0,0.0,0.0,0.0,0.0,"$VNINS,001056.701257,0000,6880,-080.241,-005.352,-001.070,+00.00000000,+000.00000000,+00000.000,+000.000,+000.000,+000.000,99.99,99.99,9.999*59"
117,4.680059652999944,vn200,VNINS,-80.242,-5.351,-1.071,,,,,,,,,,1056.726257,0000,6880,0.0,0.0,0.0,0.0,0.0,0.0,"$VNINS,001056.726257,0000,6880,-080.242,-005.351,-001.071,+00.00000000,+000.00000000,+00000.000,+000.000,+000.000,+000.000,99.99,99.99,9.999*5D"
118,4.72006251300013,vn200,VNINS,-80.242,-5.351,-1.071,,,,,,,,,,1056.751257,0000,B880,0.0,0.0,0.0,0.0,0.0,0.0,"$VNINS,001056.751257,0000,B880,-080.242,-005.351,-001.071,+00.00000000,+000.00000000,+00000.000,+000.000,+000.000,+000.000,99.99,99.99,9.999*29"
119,4.760059834999993,vn200,VNINS,-80.242,-5.352,-1.072,,,,,,,,,,1056.776257,0000,B880,0.0,0.0,0.0,0.0,0.0,0.0,"$VNINS,001056.776257,0000,B880,-080.242,-005.352,-001.072,+00.00000000,+000.00000000,+00000.000,+000.000,+000.000,+000.000,99.99,99.99,9.999*2C"
120,4.800058991000014,vn200,VNINS,-80.242,-5.354,-1.072,,,,,,,,,,1056.801257,0000,7880,0.0,0.0,0.0,0.0,0.0,0.0,"$VNINS,001056.801257,0000,7880,-080.242,-005.354,-001.072,+00.00000000,+000.00000000,+00000.000,+000.000,+000.000,+000.000,99.99,99.99,9.999*50"
121,4.840060054000105,vn200,VNINS,-80.241,-5.353,-1.073,,,,,,,,,,1056.826257,0000,7880,0.0,0.0,0.0,0.0,0.0,0.0,"$VNINS,001056.826257,0000,7880,-080.241,-005.353,-001.073,+00.00000000,+000.00000000,+00000.000,+000.000,+000.000,+000.000,99.99,99.99,9.999*50"
122,4.880057376999957,vn200,VNINS,-80.241,-5.354,-1.072,,,,,,,,,,1056.851257,0000,9880,0.0,0.0,0.0,0.0,0.0,0.0,"$VNINS,001056.851257,0000,9880,-080.241,-005.354,-001.072,+00.00000000,+000.00000000,+00000.000,+000.000,+000.000,+000.000,99.99,99.99,9.999*58"
123,4.920059328999969,vn200,VNINS,-80.241,-5.354,-1.071,,,,,,,,,,1056.876257,0000,9880,0.0,0.0,0.0,0.0,0.0,0.0,"$VNINS,001056.876257,0000,9880,-080.241,-005.354,-001.071,+00.00000000,+000.00000000,+00000.000,+000.000,+000.000,+000.000,99.99,99.99,9.999*5E"
124,4.96005994799998,vn200,VNINS,-80.241,-5.354,-1.071,,,,,,,,,,1056.901257,0000,0080,0.0,0.0,0.0,0.0,0.0,0.0,"$VNINS,001056.901257,0000,0080,-080.241,-005.354,-001.071,+00.00000000,+000.00000000,+00000.000,+000.000,+000.000,+000.000,99.99,99.99,9.999*5E"
