sample,time_s,sensor,message_type,yaw_deg,pitch_deg,roll_deg,mag_x,mag_y,mag_z,accel_x,accel_y,accel_z,gyro_x,gyro_y,gyro_z,gps_time_s,gps_week,ins_status,latitude_deg,longitude_deg,altitude_m,vel_n_mps,vel_e_mps,vel_d_mps,raw_message
0,0.0002019359999962944,vn200,VNINS,-80.212,-5.348,-1.099,,,,,,,,,,353.251257,0000,1880,0.0,0.0,0.0,0.0,0.0,0.0,"$VNINS,000353.251257,0000,1880,-080.212,-005.348,-001.099,+00.00000000,+000.00000000,+00000.000,+000.000,+000.000,+000.000,99.99,99.99,9.999*53"
1,0.045590753999988465,vn200,VNINS,-80.211,-5.348,-1.099,,,,,,,,,,353.276256,0000,1880,0.0,0.0,0.0,0.0,0.0,0.0,"$VNINS,000353.276256,0000,1880,-080.211,-005.348,-001.099,+00.00000000,+000.00000000,+00000.000,+000.000,+000.000,+000.000,99.99,99.99,9.999*54"
2,0.08005676400000539,vn200,VNINS,-80.211,-5.348,-1.099,,,,,,,,,,353.301257,0000,A080,0.0,0.0,0.0,0.0,0.0,0.0,"$VNINS,000353.301257,0000,A080,-080.211,-005.348,-001.099,+00.00000000,+000.00000000,+00000.000,+000.000,+000.000,+000.000,99.99,99.99,9.999*2C"
3,0.12005884199999173,vn200,VNINS,-80.21,-5.348,-1.1,,,,,,,,,,353.326256,0000,A080,0.0,0.0,0.0,0.0,0.0,0.0,"$VNINS,000353.326256,0000,A080,-080.210,-005.348,-001.100,+00.00000000,+000.00000000,+00000.000,+000.000,+000.000,+000.000,99.99,99.99,9.999*28"
4,0.16006431300002077,vn200,VNINS,-80.211,-5.348,-1.1,,,,,,,,,,353.351257,0000,0880,0.0,0.0,0.0,0.0,0.0,0.0,"$VNINS,000353.351257,0000,0880,-080.211,-005.348,-001.100,+00.00000000,+000.00000000,+00000.000,+000.000,+000.000,+000.000,99.99,99.99,9.999*51"
5,0.20005813599999556,vn200,VNINS,-80.21,-5.349,-1.101,,,,,,,,,,353.376256,0000,0880,0.0,0.0,0.0,0.0,0.0,0.0,"$VNINS,000353.376256,0000,0880,-080.210,-005.349,-001.101,+00.00000000,+000.00000000,+00000.000,+000.000,+000.000,+000.000,99.99,99.99,9.999*54"
6,0.24005842299999358,vn200,VNINS,-80.211,-5.349,-1.101,,,,,,,,,,353.401257,0000,F080,0.0,0.0,0.0,0.0,0.0,0.0,"$VNINS,000353.401257,0000,F080,-080.211,-005.349,-001.101,+00.00000000,+000.00000000,+00000.000,+000.000,+000.000,+000.000,99.99,99.99,9.999*2D"
7,0.2800584500000127,vn200,VNINS,-80.21,-5.349,-1.101,,,,,,,,,,353.426256,0000,F080,0.0,0.0,0.0,0.0,0.0,0.0,"$VNINS,000353.426256,0000,F080,-080.210,-005.349,-001.101,+00.00000000,+000.00000000,+00000.000,+000.000,+000.000,+000.000,99.99,99.99,9.999*28"
8,0.3200576060000344,vn200,VNINS,-80.209,-5.348,-1.102,,,,,,,,,,353.451257,0000,5080,0.0,0.0,0.0,0.0,0.0,0.0,"$VNINS,000353.451257,0000,5080,-080.209,-005.348,-001.102,+00.00000000,+000.00000000,+00000.000,+000.000,+000.000,+000.000,99.99,99.99,9.999*50"
9,0.36005704000001515,vn200,VNINS,-80.21,-5.348,-1.101,,,,,,,,,,353.476256,0000,5080,0.0,0.0,0.0,0.0,0.0,0.0,"$VNINS,000353.476256,0000,5080,-080.210,-005.348,-001.101,+00.00000000,+000.00000000,+00000.000,+000.000,+000.000,+000.000,99.99,99.99,9.999*5F"
10,0.4000582159999908,vn200,VNINS,-80.21,-5.347,-1.102,,,,,,,,,,353.501257,0000,5080,0.0,0.0,0.0,0.0,0.0,0.0,"$VNINS,000353.501257,0000,5080,-080.210,-005.347,-001.102,+00.00000000,+000.00000000,+00000.000,+000.000,+000.000,+000.000,99.99,99.99,9.999*53"
11,0.44005718700003627,vn200,VNINS,-80.21,-5.348,-1.102,,,,,,,,,,353.526256,0000,F880,0.0,0.0,0.0,0.0,0.0,0.0,"$VNINS,000353.526256,0000,F880,-080.210,-005.348,-001.102,+00.00000000,+000.00000000,+00000.000,+000.000,+000.000,+000.000,99.99,99.99,9.999*23"
12,0.48005710300003557,vn200,VNINS,-80.21,-5.348,-1.102,,,,,,,,,,353.551257,0000,F880,0.0,0.0,0.0,0.0,0.0,0.0,"$VNINS,000353.551257,0000,F880,-080.210,-005.348,-001.102,+00.00000000,+000.00000000,+00000.000,+000.000,+000.000,+000.000,99.99,99.99,9.999*22"
13,0.5200557960000083,vn200,VNINS,-80.209,-5.348,-1.102,,,,,,,,,,353.576257,0000,3880,0.0,0.0,0.0,0.0,0.0,0.0,"$VNINS,000353.576257,0000,3880,-080.209,-005.348,-001.102,+00.00000000,+000.00000000,+00000.000,+000.000,+000.000,+000.000,99.99,99.99,9.999*5A"
14,0.5600570830000038,vn200,VNINS,-80.21,-5.349,-1.102,,,,,,,,,,353.601257,0000,3880,0.0,0.0,0.0,0.0,0.0,0.0,"$VNINS,000353.601257,0000,3880,-080.210,-005.349,-001.102,+00.00000000,+000.00000000,+00000.000,+000.000,+000.000,+000.000,99.99,99.99,9.999*50"
15,0.6000590360000047,vn200,VNINS,-80.209,-5.349,-1.103,,,,,,,,,,353.626256,0000,E080,0.0,0.0,0.0,0.0,0.0,0.0,"$VNINS,000353.626256,0000,E080,-080.209,-005.349,-001.103,+00.00000000,+000.00000000,+00000.000,+000.000,+000.000,+000.000,99.99,99.99,9.999*23"
16,0.6400574330000381,vn200,VNINS,-80.209,-5.349,-1.103,,,,,,,,,,353.651257,0000,E080,0.0,0.0,0.0,0.0,0.0,0.0,"$VNINS,000353.651257,0000,E080,-080.209,-005.349,-001.103,+00.00000000,+000.00000000,+00000.000,+000.000,+000.000,+000.000,99.99,99.99,9.999*22"
17,0.680058645000031,vn200,VNINS,-80.209,-5.35,-1.103,,,,,,,,,,353.676256,0000,1080,0.0,0.0,0.0,0.0,0.0,0.0,"$VNINS,000353.676256,0000,1080,-080.209,-005.350,-001.103,+00.00000000,+000.00000000,+00000.000,+000.000,+000.000,+000.000,99.99,99.99,9.999*5A"
18,0.7200564130000089,vn200,VNINS,-80.208,-5.351,-1.103,,,,,,,,,,353.701257,0000,1080,0.0,0.0,0.0,0.0,0.0,0.0,"$VNINS,000353.701257,0000,1080,-080.208,-005.351,-001.103,+00.00000000,+000.00000000,+00000.000,+000.000,+000.000,+000.000,99.99,99.99,9.999*5A"
19,0.7600654960000384,vn200,VNINS,-80.207,-5.351,-1.104,,,,,,,,,,353.726256,0000,A080,0.0,0.0,0.0,0.0,0.0,0.0,"$VNINS,000353.726256,0000,A080,-080.207,-005.351,-001.104,+00.00000000,+000.00000000,+00000.000,+000.000,+000.000,+000.000,99.99,99.99,9.999*26"
20,0.8000597630000357,vn200,VNINS,-80.208,-5.352,-1.104,,,,,,,,,,353.751257,0000,A080,0.0,0.0,0.0,0.0,0.0,0.0,"$VNINS,000353.751257,0000,A080,-080.208,-005.352,-001.104,+00.00000000,+000.00000000,+00000.000,+000.000,+000.000,+000.000,99.99,99.99,9.999*2B"
21,0.8400580310000123,vn200,VNINS,-80.209,-5.351,-1.104,,,,,,,,,,353.776259,0000,3880,0.0,0.0,0.0,0.0,0.0,0.0,"$VNINS,000353.776259,0000,3880,-080.209,-005.351,-001.104,+00.00000000,+000.00000000,+00000.000,+000.000,+000.000,+000.000,99.99,99.99,9.999*58"
22,0.8800578910000354,vn200,VNINS,-80.21,-5.353,-1.104,,,,,,,,,,353.801257,0000,3880,0.0,0.0,0.0,0.0,0.0,0.0,"$VNINS,000353.801257,0000,3880,-080.210,-005.353,-001.104,+00.00000000,+000.00000000,+00000.000,+000.000,+000.000,+000.000,99.99,99.99,9.999*53"
23,0.9200583250000136,vn200,VNINS,-80.21,-5.352,-1.104,,,,,,,,,,353.826256,0000,F080,0.0,0.0,0.0,0.0,0.0,0.0,"$VNINS,000353.826256,0000,F080,-080.210,-005.352,-001.104,+00.00000000,+000.00000000,+00000.000,+000.000,+000.000,+000.000,99.99,99.99,9.999*2B"
24,0.9600583890000394,vn200,VNINS,-80.21,-5.352,-1.104,,,,,,,,,,353.851257,0000,F080,0.0,0.0,0.0,0.0,0.0,0.0,"$VNINS,000353.851257,0000,F080,-080.210,-005.352,-001.104,+00.00000000,+000.00000000,+00000.000,+000.000,+000.000,+000.000,99.99,99.99,9.999*2A"
25,1.0000593420000428,vn200,VNINS,-80.211,-5.353,-1.104,,,,,,,,,,353.876256,0000,F080,0.0,0.0,0.0,0.0,0.0,0.0,"$VNINS,000353.876256,0000,F080,-080.211,-005.353,-001.104,+00.00000000,+000.00000000,+00000.000,+000.000,+000.000,+000.000,99.99,99.99,9.999*2E"
26,1.0400558510000337,vn200,VNINS,-80.21,-5.352,-1.104,,,,,,,,,,353.901257,0000,5880,0.0,0.0,0.0,0.0,0.0,0.0,"$VNINS,000353.901257,0000,5880,-080.210,-005.352,-001.104,+00.00000000,+000.00000000,+00000.000,+000.000,+000.000,+000.000,99.99,99.99,9.999*55"
27,1.0800574700000425,vn200,VNINS,-80.21,-5.354,-1.103,,,,,,,,,,353.926256,0000,5880,0.0,0.0,0.0,0.0,0.0,0.0,"$VNINS,000353.926256,0000,5880,-080.210,-005.354,-001.103,+00.00000000,+000.00000000,+00000.000,+000.000,+000.000,+000.000,99.99,99.99,9.999*50"
28,1.120057230000043,vn200,VNINS,-80.211,-5.354,-1.103,,,,,,,,,,353.951257,0000,F880,0.0,0.0,0.0,0.0,0.0,0.0,"$VNINS,000353.951257,0000,F880,-080.211,-005.354,-001.103,+00.00000000,+000.00000000,+00000.000,+000.000,+000.000,+000.000,99.99,99.99,9.999*23"
29,1.1600637010000128,vn200,VNINS,-80.211,-5.354,-1.102,,,,,,,,,,353.976256,0000,F880,0.0,0.0,0.0,0.0,0.0,0.0,"$VNINS,000353.976256,0000,F880,-080.211,-005.354,-001.102,+00.00000000,+000.00000000,+00000.000,+000.000,+000.000,+000.000,99.99,99.99,9.999*26"
30,1.2000586700000326,vn200,VNINS,-80.213,-5.355,-1.102,,,,,,,,,,354.001257,0000,7880,0.0,0.0,0.0,0.0,0.0,0.0,"$VNINS,000354.001257,0000,7880,-080.213,-005.355,-001.102,+00.00000000,+000.00000000,+00000.000,+000.000,+000.000,+000.000,99.99,99.99,9.999*5B"
31,1.2400558809999893,vn200,VNINS,-80.212,-5.354,-1.102,,,,,,,,,,354.026256,0000,7880,0.0,0.0,0.0,0.0,0.0,0.0,"$VNINS,000354.026256,0000,7880,-080.212,-005.354,-001.102,+00.00000000,+000.00000000,+00000.000,+000.000,+000.000,+000.000,99.99,99.99,9.999*5F"
32,1.2800570910000033,vn200,VNINS,-80.212,-5.353,-1.102,,,,,,,,,,354.051257,0000,8880,0.0,0.0,0.0,0.0,0.0,0.0,"$VNINS,000354.051257,0000,8880,-080.212,-005.353,-001.102,+00.00000000,+000.00000000,+00000.000,+000.000,+000.000,+000.000,99.99,99.99,9.999*56"
33,1.3200588760000187,vn200,VNINS,-80.212,-5.354,-1.101,,,,,,,,,,354.076257,0000,8880,0.0,0.0,0.0,0.0,0.0,0.0,"$VNINS,000354.076257,0000,8880,-080.212,-005.354,-001.101,+00.00000000,+000.00000000,+00000.000,+000.000,+000.000,+000.000,99.99,99.99,9.999*57"
34,1.3600588650000418,vn200,VNINS,-80.212,-5.354,-1.101,,,,,,,,,,354.101257,0000,0880,0.0,0.0,0.0,0.0,0.0,0.0,"$VNINS,000354.101257,0000,0880,-080.212,-005.354,-001.101,+00.00000000,+000.00000000,+00000.000,+000.000,+000.000,+000.000,99.99,99.99,9.999*5E"
35,1.4000576120000119,vn200,VNINS,-80.211,-5.354,-1.1,,,,,,,,,,354.126256,0000,0880,0.0,0.0,0.0,0.0,0.0,0.0,"$VNINS,000354.126256,0000,0880,-080.211,-005.354,-001.100,+00.00000000,+000.00000000,+00000.000,+000.000,+000.000,+000.000,99.99,99.99,9.999*58"
36,1.4400598050000326,vn200,VNINS,-80.211,-5.355,-1.1,,,,,,,,,,354.151257,0000,A080,0.0,0.0,0.0,0.0,0.0,0.0,"$VNINS,000354.151257,0000,A080,-080.211,-005.355,-001.100,+00.00000000,+000.00000000,+00000.000,+000.000,+000.000,+000.000,99.99,99.99,9.999*21"
37,1.4800592000000279,vn200,VNINS,-80.212,-5.355,-1.099,,,,,,,,,,354.176256,0000,A080,0.0,0.0,0.0,0.0,0.0,0.0,"$VNINS,000354.176256,0000,A080,-080.212,-005.355,-001.099,+00.00000000,+000.00000000,+00000.000,+000.000,+000.000,+000.000,99.99,99.99,9.999*27"
38,1.52005815199999,vn200,VNINS,-80.213,-5.355,-1.1,,,,,,,,,,354.201257,0000,0880,0.0,0.0,0.0,0.0,0.0,0.0,"$VNINS,000354.201257,0000,0880,-080.213,-005.355,-001.100,+00.00000000,+000.00000000,+00000.000,+000.000,+000.000,+000.000,99.99,99.99,9.999*5C"
39,1.5600581400000237,vn200,VNINS,-80.212,-5.354,-1.1,,,,,,,,,,354.226256,0000,0880,0.0,0.0,0.0,0.0,0.0,0.0,"$VNINS,000354.226256,0000,0880,-080.212,-005.354,-001.100,+00.00000000,+000.00000000,+00000.000,+000.000,+000.000,+000.000,99.99,99.99,9.999*58"
40,1.600057961999994,vn200,VNINS,-80.214,-5.353,-1.099,,,,,,,,,,354.251257,0000,F080,0.0,0.0,0.0,0.0,0.0,0.0,"$VNINS,000354.251257,0000,F080,-080.214,-005.353,-001.099,+00.00000000,+000.00000000,+00000.000,+000.000,+000.000,+000.000,99.99,99.99,9.999*27"
41,1.6400570609999932,vn200,VNINS,-80.214,-5.353,-1.1,,,,,,,,,,354.276256,0000,F080,0.0,0.0,0.0,0.0,0.0,0.0,"$VNINS,000354.276256,0000,F080,-080.214,-005.353,-001.100,+00.00000000,+000.00000000,+00000.000,+000.000,+000.000,+000.000,99.99,99.99,9.999*22"
42,1.6800603650000312,vn200,VNINS,-80.214,-5.351,-1.098,,,,,,,,,,354.301257,0000,F080,0.0,0.0,0.0,0.0,0.0,0.0,"$VNINS,000354.301257,0000,F080,-080.214,-005.351,-001.098,+00.00000000,+000.00000000,+00000.000,+000.000,+000.000,+000.000,99.99,99.99,9.999*20"
43,1.7200580749999972,vn200,VNINS,-80.215,-5.351,-1.099,,,,,,,,,,354.326256,0000,5080,0.0,0.0,0.0,0.0,0.0,0.0,"$VNINS,000354.326256,0000,5080,-080.215,-005.351,-001.099,+00.00000000,+000.00000000,+00000.000,+000.000,+000.000,+000.000,99.99,99.99,9.999*57"
44,1.7600590270000112,vn200,VNINS,-80.217,-5.351,-1.098,,,,,,,,,,354.351257,0000,5080,0.0,0.0,0.0,0.0,0.0,0.0,"$VNINS,000354.351257,0000,5080,-080.217,-005.351,-001.098,+00.00000000,+000.00000000,+00000.000,+000.000,+000.000,+000.000,99.99,99.99,9.999*55"
45,1.8000592189999907,vn200,VNINS,-80.218,-5.351,-1.099,,,,,,,,,,354.376256,0000,F880,0.0,0.0,0.0,0.0,0.0,0.0,"$VNINS,000354.376256,0000,F880,-080.218,-005.351,-001.099,+00.00000000,+000.00000000,+00000.000,+000.000,+000.000,+000.000,99.99,99.99,9.999*24"
46,1.8400580590000004,vn200,VNINS,-80.219,-5.351,-1.099,,,,,,,,,,354.401257,0000,F880,0.0,0.0,0.0,0.0,0.0,0.0,"$VNINS,000354.401257,0000,F880,-080.219,-005.351,-001.099,+00.00000000,+000.00000000,+00000.000,+000.000,+000.000,+000.000,99.99,99.99,9.999*23"
47,1.8800584730000196,vn200,VNINS,-80.218,-5.35,-1.099,,,,,,,,,,354.426256,0000,3880,0.0,0.0,0.0,0.0,0.0,0.0,"$VNINS,000354.426256,0000,3880,-080.218,-005.350,-001.099,+00.00000000,+000.00000000,+00000.000,+000.000,+000.000,+000.000,99.99,99.99,9.999*52"
48,1.9200580170000308,vn200,VNINS,-80.218,-5.35,-1.099,,,,,,,,,,354.451257,0000,3880,0.0,0.0,0.0,0.0,0.0,0.0,"$VNINS,000354.451257,0000,3880,-080.218,-005.350,-001.099,+00.00000000,+000.00000000,+00000.000,+000.000,+000.000,+000.000,99.99,99.99,9.999*53"
49,1.9600584500000195,vn200,VNINS,-80.219,-5.349,-1.1,,,,,,,,,,354.476257,0000,E080,0.0,0.0,0.0,0.0,0.0,0.0,"$VNINS,000354.476257,0000,E080,-080.219,-005.349,-001.100,+00.00000000,+000.00000000,+00000.000,+000.000,+000.000,+000.000,99.99,99.99,9.999*20"
50,2.0000580130000003,vn200,VNINS,-80.218,-5.35,-1.099,,,,,,,,,,354.501257,0000,E080,0.0,0.0,0.0,0.0,0.0,0.0,"$VNINS,000354.501257,0000,E080,-080.218,-005.350,-001.099,+00.00000000,+000.00000000,+00000.000,+000.000,+000.000,+000.000,99.99,99.99,9.999*29"
51,2.0400584270000195,vn200,VNINS,-80.219,-5.351,-1.1,,,,,,,,,,354.526256,0000,1080,0.0,0.0,0.0,0.0,0.0,0.0,"$VNINS,000354.526256,0000,1080,-080.219,-005.351,-001.100,+00.00000000,+000.00000000,+00000.000,+000.000,+000.000,+000.000,99.99,99.99,9.999*58"
52,2.0800575080000385,vn200,VNINS,-80.219,-5.351,-1.098,,,,,,,,,,354.551257,0000,1080,0.0,0.0,0.0,0.0,0.0,0.0,"$VNINS,000354.551257,0000,1080,-080.219,-005.351,-001.098,+00.00000000,+000.00000000,+00000.000,+000.000,+000.000,+000.000,99.99,99.99,9.999*59"
53,2.1200568040000007,vn200,VNINS,-80.219,-5.352,-1.098,,,,,,,,,,354.576256,0000,A080,0.0,0.0,0.0,0.0,0.0,0.0,"$VNINS,000354.576256,0000,A080,-080.219,-005.352,-001.098,+00.00000000,+000.00000000,+00000.000,+000.000,+000.000,+000.000,99.99,99.99,9.999*2E"
54,2.160064736000038,vn200,VNINS,-80.219,-5.351,-1.098,,,,,,,,,,354.601257,0000,A080,0.0,0.0,0.0,0.0,0.0,0.0,"$VNINS,000354.601257,0000,A080,-080.219,-005.351,-001.098,+00.00000000,+000.00000000,+00000.000,+000.000,+000.000,+000.000,99.99,99.99,9.999*2F"
55,2.2000602980000394,vn200,VNINS,-80.219,-5.351,-1.098,,,,,,,,,,354.626257,0000,0880,0.0,0.0,0.0,0.0,0.0,0.0,"$VNINS,000354.626257,0000,0880,-080.219,-005.351,-001.098,+00.00000000,+000.00000000,+00000.000,+000.000,+000.000,+000.000,99.99,99.99,9.999*53"
56,2.2400600080000004,vn200,VNINS,-80.218,-5.353,-1.097,,,,,,,,,,354.651257,0000,0880,0.0,0.0,0.0,0.0,0.0,0.0,"$VNINS,000354.651257,0000,0880,-080.218,-005.353,-001.097,+00.00000000,+000.00000000,+00000.000,+000.000,+000.000,+000.000,99.99,99.99,9.999*5F"
57,2.280058180000026,vn200,VNINS,-80.217,-5.353,-1.097,,,,,,,,,,354.676257,0000,F080,0.0,0.0,0.0,0.0,0.0,0.0,"$VNINS,000354.676257,0000,F080,-080.217,-005.353,-001.097,+00.00000000,+000.00000000,+00000.000,+000.000,+000.000,+000.000,99.99,99.99,9.999*2B"
58,2.3200581680000028,vn200,VNINS,-80.216,-5.353,-1.098,,,,,,,,,,354.701257,0000,F080,0.0,0.0,0.0,0.0,0.0,0.0,"$VNINS,000354.701257,0000,F080,-080.216,-005.353,-001.098,+00.00000000,+000.00000000,+00000.000,+000.000,+000.000,+000.000,99.99,99.99,9.999*24"
59,2.36005837700003,vn200,VNINS,-80.216,-5.353,-1.099,,,,,,,,,,354.726257,0000,5080,0.0,0.0,0.0,0.0,0.0,0.0,"$VNINS,000354.726257,0000,5080,-080.216,-005.353,-001.099,+00.00000000,+000.00000000,+00000.000,+000.000,+000.000,+000.000,99.99,99.99,9.999*53"
60,2.400058050000041,vn200,VNINS,-80.216,-5.355,-1.099,,,,,,,,,,354.751257,0000,5080,0.0,0.0,0.0,0.0,0.0,0.0,"$VNINS,000354.751257,0000,5080,-080.216,-005.355,-001.099,+00.00000000,+000.00000000,+00000.000,+000.000,+000.000,+000.000,99.99,99.99,9.999*55"
61,2.4400665379999964,vn200,VNINS,-80.215,-5.357,-1.099,,,,,,,,,,354.776256,0000,F880,0.0,0.0,0.0,0.0,0.0,0.0,"$VNINS,000354.776256,0000,F880,-080.215,-005.357,-001.099,+00.00000000,+000.00000000,+00000.000,+000.000,+000.000,+000.000,99.99,99.99,9.999*2B"
62,2.480058136000025,vn200,VNINS,-80.215,-5.356,-1.099,,,,,,,,,,354.801257,0000,F880,0.0,0.0,0.0,0.0,0.0,0.0,"$VNINS,000354.801257,0000,F880,-080.215,-005.356,-001.099,+00.00000000,+000.00000000,+00000.000,+000.000,+000.000,+000.000,99.99,99.99,9.999*24"
63,2.5200571420000415,vn200,VNINS,-80.215,-5.355,-1.1,,,,,,,,,,354.826256,0000,F880,0.0,0.0,0.0,0.0,0.0,0.0,"$VNINS,000354.826256,0000,F880,-080.215,-005.355,-001.100,+00.00000000,+000.00000000,+00000.000,+000.000,+000.000,+000.000,99.99,99.99,9.999*22"
64,2.560059574000036,vn200,VNINS,-80.215,-5.354,-1.101,,,,,,,,,,354.851257,0000,3880,0.0,0.0,0.0,0.0,0.0,0.0,"$VNINS,000354.851257,0000,3880,-080.215,-005.354,-001.101,+00.00000000,+000.00000000,+00000.000,+000.000,+000.000,+000.000,99.99,99.99,9.999*56"
65,2.6000579509999966,vn200,VNINS,-80.215,-5.354,-1.098,,,,,,,,,,354.876261,0000,3880,0.0,0.0,0.0,0.0,0.0,0.0,"$VNINS,000354.876261,0000,3880,-080.215,-005.354,-001.098,+00.00000000,+000.00000000,+00000.000,+000.000,+000.000,+000.000,99.99,99.99,9.999*57"
66,2.6400580860000105,vn200,VNINS,-80.215,-5.355,-1.099,,,,,,,,,,354.901257,0000,E080,0.0,0.0,0.0,0.0,0.0,0.0,"$VNINS,000354.901257,0000,E080,-080.215,-005.355,-001.099,+00.00000000,+000.00000000,+00000.000,+000.000,+000.000,+000.000,99.99,99.99,9.999*2D"
67,2.680057722000015,vn200,VNINS,-80.214,-5.354,-1.1,,,,,,,,,,354.926257,0000,E080,0.0,0.0,0.0,0.0,0.0,0.0,"$VNINS,000354.926257,0000,E080,-080.214,-005.354,-001.100,+00.00000000,+000.00000000,+00000.000,+000.000,+000.000,+000.000,99.99,99.99,9.999*29"
68,2.7200579870000183,vn200,VNINS,-80.214,-5.354,-1.099,,,,,,,,,,354.951257,0000,1080,0.0,0.0,0.0,0.0,0.0,0.0,"$VNINS,000354.951257,0000,1080,-080.214,-005.354,-001.099,+00.00000000,+000.00000000,+00000.000,+000.000,+000.000,+000.000,99.99,99.99,9.999*5C"
69,2.7600586410000005,vn200,VNINS,-80.214,-5.355,-1.099,,,,,,,,,,354.976257,0000,1080,0.0,0.0,0.0,0.0,0.0,0.0,"$VNINS,000354.976257,0000,1080,-080.214,-005.355,-001.099,+00.00000000,+000.00000000,+00000.000,+000.000,+000.000,+000.000,99.99,99.99,9.999*58"
70,2.8000589069999933,vn200,VNINS,-80.215,-5.355,-1.098,,,,,,,,,,355.001257,0000,A080,0.0,0.0,0.0,0.0,0.0,0.0,"$VNINS,000355.001257,0000,A080,-080.215,-005.355,-001.098,+00.00000000,+000.00000000,+00000.000,+000.000,+000.000,+000.000,99.99,99.99,9.999*20"
71,2.8400592280000296,vn200,VNINS,-80.216,-5.355,-1.097,,,,,,,,,,355.026256,0000,A080,0.0,0.0,0.0,0.0,0.0,0.0,"$VNINS,000355.026256,0000,A080,-080.216,-005.355,-001.097,+00.00000000,+000.00000000,+00000.000,+000.000,+000.000,+000.000,99.99,99.99,9.999*28"
72,2.880057660000034,vn200,VNINS,-80.215,-5.356,-1.098,,,,,,,,,,355.051257,0000,0880,0.0,0.0,0.0,0.0,0.0,0.0,"$VNINS,000355.051257,0000,0880,-080.215,-005.356,-001.098,+00.00000000,+000.00000000,+00000.000,+000.000,+000.000,+000.000,99.99,99.99,9.999*5F"
73,2.920059406000007,vn200,VNINS,-80.215,-5.356,-1.097,,,,,,,,,,355.076257,0000,0880,0.0,0.0,0.0,0.0,0.0,0.0,"$VNINS,000355.076257,0000,0880,-080.215,-005.356,-001.097,+00.00000000,+000.00000000,+00000.000,+000.000,+000.000,+000.000,99.99,99.99,9.999*55"
74,2.9600570420000167,vn200,VNINS,-80.216,-5.357,-1.096,,,,,,,,,,355.101257,0000,F080,0.0,0.0,0.0,0.0,0.0,0.0,"$VNINS,000355.101257,0000,F080,-080.216,-005.357,-001.096,+00.00000000,+000.00000000,+00000.000,+000.000,+000.000,+000.000,99.99,99.99,9.999*29"
75,3.0000580110000215,vn200,VNINS,-80.216,-5.357,-1.097,,,,,,,,,,355.126256,0000,F080,0.0,0.0,0.0,0.0,0.0,0.0,"$VNINS,000355.126256,0000,F080,-080.216,-005.357,-001.097,+00.00000000,+000.00000000,+00000.000,+000.000,+000.000,+000.000,99.99,99.99,9.999*2C"
76,3.0400588690000063,vn200,VNINS,-80.216,-5.356,-1.097,,,,,,,,,,355.151257,0000,5080,0.0,0.0,0.0,0.0,0.0,0.0,"$VNINS,000355.151257,0000,5080,-080.216,-005.356,-001.097,+00.00000000,+000.00000000,+00000.000,+000.000,+000.000,+000.000,99.99,99.99,9.999*5F"
77,3.080057764000003,vn200,VNINS,-80.215,-5.355,-1.098,,,,,,,,,,355.176256,0000,5080,0.0,0.0,0.0,0.0,0.0,0.0,"$VNINS,000355.176256,0000,5080,-080.215,-005.355,-001.098,+00.00000000,+000.00000000,+00000.000,+000.000,+000.000,+000.000,99.99,99.99,9.999*54"
78,3.120056340000019,vn200,VNINS,-80.221,-5.356,-1.095,,,,,,,,,,356.326257,0000,0080,0.0,0.0,0.0,0.0,0.0,0.0,"$VNINS,000356.326257,0000,0080,-080.221,-005.356,-001.095,+00.00000000,+000.00000000,+00000.000,+000.000,+000.000,+000.000,99.99,99.99,9.999*5D"
79,3.1600644760000023,vn200,VNINS,-80.221,-5.356,-1.094,,,,,,,,,,356.351257,0000,0080,0.0,0.0,0.0,0.0,0.0,0.0,"$VNINS,000356.351257,0000,0080,-080.221,-005.356,-001.094,+00.00000000,+000.00000000,+00000.000,+000.000,+000.000,+000.000,99.99,99.99,9.999*5C"
80,3.200061333000008,vn200,VNINS,-80.22,-5.357,-1.093,,,,,,,,,,356.376256,0000,E880,0.0,0.0,0.0,0.0,0.0,0.0,"$VNINS,000356.376256,0000,E880,-080.220,-005.357,-001.093,+00.00000000,+000.00000000,+00000.000,+000.000,+000.000,+000.000,99.99,99.99,9.999*22"
81,3.240057245999992,vn200,VNINS,-80.222,-5.357,-1.094,,,,,,,,,,356.401257,0000,E880,0.0,0.0,0.0,0.0,0.0,0.0,"$VNINS,000356.401257,0000,E880,-080.222,-005.357,-001.094,+00.00000000,+000.00000000,+00000.000,+000.000,+000.000,+000.000,99.99,99.99,9.999*21"
82,3.280057733000035,vn200,VNINS,-80.222,-5.356,-1.093,,,,,,,,,,356.426258,0000,5080,0.0,0.0,0.0,0.0,0.0,0.0,"$VNINS,000356.426258,0000,5080,-080.222,-005.356,-001.093,+00.00000000,+000.00000000,+00000.000,+000.000,+000.000,+000.000,99.99,99.99,9.999*55"
83,3.320059108999999,vn200,VNINS,-80.222,-5.356,-1.093,,,,,,,,,,356.451257,0000,5080,0.0,0.0,0.0,0.0,0.0,0.0,"$VNINS,000356.451257,0000,5080,-080.222,-005.356,-001.093,+00.00000000,+000.00000000,+00000.000,+000.000,+000.000,+000.000,99.99,99.99,9.999*5A"
84,3.36005622600004,vn200,VNINS,-80.223,-5.356,-1.093,,,,,,,,,,356.476257,0000,B080,0.0,0.0,0.0,0.0,0.0,0.0,"$VNINS,000356.476257,0000,B080,-080.223,-005.356,-001.093,+00.00000000,+000.00000000,+00000.000,+000.000,+000.000,+000.000,99.99,99.99,9.999*29"
85,3.4000583620000384,vn200,VNINS,-80.223,-5.355,-1.093,,,,,,,,,,356.501257,0000,B080,0.0,0.0,0.0,0.0,0.0,0.0,"$VNINS,000356.501257,0000,B080,-080.223,-005.355,-001.093,+00.00000000,+000.00000000,+00000.000,+000.000,+000.000,+000.000,99.99,99.99,9.999*2B"
86,3.440056255999991,vn200,VNINS,-80.223,-5.355,-1.093,,,,,,,,,,356.526256,0000,5880,0.0,0.0,0.0,0.0,0.0,0.0,"$VNINS,000356.526256,0000,5880,-080.223,-005.355,-001.093,+00.00000000,+000.00000000,+00000.000,+000.000,+000.000,+000.000,99.99,99.99,9.999*50"
87,3.4800569280000104,vn200,VNINS,-80.222,-5.355,-1.092,,,,,,,,,,356.551257,0000,5880,0.0,0.0,0.0,0.0,0.0,0.0,"$VNINS,000356.551257,0000,5880,-080.222,-005.355,-001.092,+00.00000000,+000.00000000,+00000.000,+000.000,+000.000,+000.000,99.99,99.99,9.999*51"
88,3.5200580270000046,vn200,VNINS,-80.222,-5.353,-1.092,,,,,,,,,,356.576257,0000,5880,0.0,0.0,0.0,0.0,0.0,0.0,"$VNINS,000356.576257,0000,5880,-080.222,-005.353,-001.092,+00.00000000,+000.00000000,+00000.000,+000.000,+000.000,+000.000,99.99,99.99,9.999*52"
89,3.560060125000007,vn200,VNINS,-80.222,-5.352,-1.09,,,,,,,,,,356.601257,0000,B880,0.0,0.0,0.0,0.0,0.0,0.0,"$VNINS,000356.601257,0000,B880,-080.222,-005.352,-001.090,+00.00000000,+000.00000000,+00000.000,+000.000,+000.000,+000.000,99.99,99.99,9.999*25"
90,3.600058261000015,vn200,VNINS,-80.221,-5.353,-1.09,,,,,,,,,,356.626257,0000,B880,0.0,0.0,0.0,0.0,0.0,0.0,"$VNINS,000356.626257,0000,B880,-080.221,-005.353,-001.090,+00.00000000,+000.00000000,+00000.000,+000.000,+000.000,+000.000,99.99,99.99,9.999*22"
91,3.6400580810000065,vn200,VNINS,-80.222,-5.352,-1.09,,,,,,,,,,356.651257,0000,3080,0.0,0.0,0.0,0.0,0.0,0.0,"$VNINS,000356.651257,0000,3080,-080.222,-005.352,-001.090,+00.00000000,+000.00000000,+00000.000,+000.000,+000.000,+000.000,99.99,99.99,9.999*59"
92,3.68005688300002,vn200,VNINS,-80.222,-5.353,-1.089,,,,,,,,,,356.676256,0000,3080,0.0,0.0,0.0,0.0,0.0,0.0,"$VNINS,000356.676256,0000,3080,-080.222,-005.353,-001.089,+00.00000000,+000.00000000,+00000.000,+000.000,+000.000,+000.000,99.99,99.99,9.999*54"
93,3.7200572039999997,vn200,VNINS,-80.223,-5.353,-1.09,,,,,,,,,,356.701257,0000,9880,0.0,0.0,0.0,0.0,0.0,0.0,"$VNINS,000356.701257,0000,9880,-080.223,-005.353,-001.090,+00.00000000,+000.00000000,+00000.000,+000.000,+000.000,+000.000,99.99,99.99,9.999*5F"
94,3.76005615400004,vn200,VNINS,-80.223,-5.353,-1.089,,,,,,,,,,356.726257,0000,9880,0.0,0.0,0.0,0.0,0.0,0.0,"$VNINS,000356.726257,0000,9880,-080.223,-005.353,-001.089,+00.00000000,+000.00000000,+00000.000,+000.000,+000.000,+000.000,99.99,99.99,9.999*52"
95,3.8000600860000304,vn200,VNINS,-80.223,-5.354,-1.089,,,,,,,,,,356.751257,0000,4880,0.0,0.0,0.0,0.0,0.0,0.0,"$VNINS,000356.751257,0000,4880,-080.223,-005.354,-001.089,+00.00000000,+000.00000000,+00000.000,+000.000,+000.000,+000.000,99.99,99.99,9.999*58"
96,3.8400581280000097,vn200,VNINS,-80.224,-5.353,-1.091,,,,,,,,,,356.776257,0000,4880,0.0,0.0,0.0,0.0,0.0,0.0,"$VNINS,000356.776257,0000,4880,-080.224,-005.353,-001.091,+00.00000000,+000.00000000,+00000.000,+000.000,+000.000,+000.000,99.99,99.99,9.999*54"
97,3.8800589490000448,vn200,VNINS,-80.225,-5.353,-1.091,,,,,,,,,,356.801257,0000,B880,0.0,0.0,0.0,0.0,0.0,0.0,"$VNINS,000356.801257,0000,B880,-080.225,-005.353,-001.091,+00.00000000,+000.00000000,+00000.000,+000.000,+000.000,+000.000,99.99,99.99,9.999*2C"
98,3.920057899000028,vn200,VNINS,-80.223,-5.353,-1.092,,,,,,,,,,356.826256,0000,B880,0.0,0.0,0.0,0.0,0.0,0.0,"$VNINS,000356.826256,0000,B880,-080.223,-005.353,-001.092,+00.00000000,+000.00000000,+00000.000,+000.000,+000.000,+000.000,99.99,99.99,9.999*2D"
99,3.960057923000022,vn200,VNINS,-80.223,-5.353,-1.092,,,,,,,,,,356.851257,0000,6080,0.0,0.0,0.0,0.0,0.0,0.0,"$VNINS,000356.851257,0000,6080,-080.223,-005.353,-001.092,+00.00000000,+000.00000000,+00000.000,+000.000,+000.000,+000.000,99.99,99.99,9.999*50"
100,4.000059133000036,vn200,VNINS,-80.223,-5.354,-1.093,,,,,,,,,,356.876257,0000,6080,0.0,0.0,0.0,0.0,0.0,0.0,"$VNINS,000356.876257,0000,6080,-080.223,-005.354,-001.093,+00.00000000,+000.00000000,+00000.000,+000.000,+000.000,+000.000,99.99,99.99,9.999*53"
101,4.040060398000037,vn200,VNINS,-80.223,-5.353,-1.093,,,,,,,,,,356.901257,0000,F080,0.0,0.0,0.0,0.0,0.0,0.0,"$VNINS,000356.901257,0000,F080,-080.223,-005.353,-001.093,+00.00000000,+000.00000000,+00000.000,+000.000,+000.000,+000.000,99.99,99.99,9.999*25"
102,4.080059237,vn200,VNINS,-80.223,-5.351,-1.093,,,,,,,,,,356.926256,0000,F080,0.0,0.0,0.0,0.0,0.0,0.0,"$VNINS,000356.926256,0000,F080,-080.223,-005.351,-001.093,+00.00000000,+000.00000000,+00000.000,+000.000,+000.000,+000.000,99.99,99.99,9.999*23"
103,4.12006119900002,vn200,VNINS,-80.223,-5.352,-1.093,,,,,,,,,,356.951257,0000,F080,0.0,0.0,0.0,0.0,0.0,0.0,"$VNINS,000356.951257,0000,F080,-080.223,-005.352,-001.093,+00.00000000,+000.00000000,+00000.000,+000.000,+000.000,+000.000,99.99,99.99,9.999*21"
104,4.160064315999989,vn200,VNINS,-80.224,-5.352,-1.092,,,,,,,,,,356.976257,0000,6880,0.0,0.0,0.0,0.0,0.0,0.0,"$VNINS,000356.976257,0000,6880,-080.224,-005.352,-001.092,+00.00000000,+000.00000000,+00000.000,+000.000,+000.000,+000.000,99.99,99.99,9.999*5A"
105,4.200061043999995,vn200,VNINS,-80.224,-5.352,-1.092,,,,,,,,,,357.001257,0000,6880,0.0,0.0,0.0,0.0,0.0,0.0,"$VNINS,000357.001257,0000,6880,-080.224,-005.352,-001.092,+00.00000000,+000.00000000,+00000.000,+000.000,+000.000,+000.000,99.99,99.99,9.999*52"
106,4.240058458000021,vn200,VNINS,-80.224,-5.351,-1.092,,,,,,,,,,357.026256,0000,E080,0.0,0.0,0.0,0.0,0.0,0.0,"$VNINS,000357.026256,0000,E080,-080.224,-005.351,-001.092,+00.00000000,+000.00000000,+00000.000,+000.000,+000.000,+000.000,99.99,99.99,9.999*2E"
107,4.280058427000029,vn200,VNINS,-80.224,-5.352,-1.092,,,,,,,,,,357.051257,0000,E080,0.0,0.0,0.0,0.0,0.0,0.0,"$VNINS,000357.051257,0000,E080,-080.224,-005.352,-001.092,+00.00000000,+000.00000000,+00000.000,+000.000,+000.000,+000.000,99.99,99.99,9.999*2C"
108,4.3200580989999935,vn200,VNINS,-80.223,-5.352,-1.091,,,,,,,,,,357.076257,0000,0080,0.0,0.0,0.0,0.0,0.0,0.0,"$VNINS,000357.076257,0000,0080,-080.223,-005.352,-001.091,+00.00000000,+000.00000000,+00000.000,+000.000,+000.000,+000.000,99.99,99.99,9.999*58"
109,4.3600587349999955,vn200,VNINS,-80.224,-5.352,-1.092,,,,,,,,,,357.101257,0000,0080,0.0,0.0,0.0,0.0,0.0,0.0,"$VNINS,000357.101257,0000,0080,-080.224,-005.352,-001.092,+00.00000000,+000.00000000,+00000.000,+000.000,+000.000,+000.000,99.99,99.99,9.999*5D"
110,4.400058389000037,vn200,VNINS,-80.224,-5.352,-1.092,,,,,,,,,,357.126256,0000,9880,0.0,0.0,0.0,0.0,0.0,0.0,"$VNINS,000357.126256,0000,9880,-080.224,-005.352,-001.092,+00.00000000,+000.00000000,+00000.000,+000.000,+000.000,+000.000,99.99,99.99,9.999*58"
111,4.440056988000038,vn200,VNINS,-80.225,-5.352,-1.093,,,,,,,,,,357.151257,0000,9880,0.0,0.0,0.0,0.0,0.0,0.0,"$VNINS,000357.151257,0000,9880,-080.225,-005.352,-001.093,+00.00000000,+000.00000000,+00000.000,+000.000,+000.000,+000.000,99.99,99.99,9.999*59"
112,4.480063809000001,vn200,VNINS,-80.225,-5.353,-1.093,,,,,,,,,,357.176257,0000,4080,0.0,0.0,0.0,0.0,0.0,0.0,"$VNINS,000357.176257,0000,4080,-080.225,-005.353,-001.093,+00.00000000,+000.00000000,+00000.000,+000.000,+000.000,+000.000,99.99,99.99,9.999*58"
113,4.5200594810000325,vn200,VNINS,-80.226,-5.354,-1.093,,,,,,,,,,357.201257,0000,4080,0.0,0.0,0.0,0.0,0.0,0.0,"$VNINS,000357.201257,0000,4080,-080.226,-005.354,-001.093,+00.00000000,+000.00000000,+00000.000,+000.000,+000.000,+000.000,99.99,99.99,9.999*5F"
114,4.560058932000004,vn200,VNINS,-80.226,-5.353,-1.093,,,,,,,,,,357.226256,0000,8880,0.0,0.0,0.0,0.0,0.0,0.0,"$VNINS,000357.226256,0000,8880,-080.226,-005.353,-001.093,+00.00000000,+000.00000000,+00000.000,+000.000,+000.000,+000.000,99.99,99.99,9.999*58"
115,4.600058493000006,vn200,VNINS,-80.226,-5.353,-1.093,,,,,,,,,,357.251257,0000,8880,0.0,0.0,0.0,0.0,0.0,0.0,"$VNINS,000357.251257,0000,8880,-080.226,-005.353,-001.093,+00.00000000,+000.00000000,+00000.000,+000.000,+000.000,+000.000,99.99,99.99,9.999*59"
116,4.640059369000028,vn200,VNINS,-80.227,-5.353,-1.093,,,,,,,,,,357.276257,0000,0880,0.0,0.0,0.0,0.0,0.0,0.0,"$VNINS,000357.276257,0000,0880,-080.227,-005.353,-001.093,+00.00000000,+000.00000000,+00000.000,+000.000,+000.000,+000.000,99.99,99.99,9.999*55"
117,4.680058375000044,vn200,VNINS,-80.227,-5.353,-1.093,,,,,,,,,,357.301257,0000,0880,0.0,0.0,0.0,0.0,0.0,0.0,"$VNINS,000357.301257,0000,0880,-080.227,-005.353,-001.093,+00.00000000,+000.00000000,+00000.000,+000.000,+000.000,+000.000,99.99,99.99,9.999*54"
118,4.720056381000006,vn200,VNINS,-80.227,-5.354,-1.093,,,,,,,,,,357.326256,0000,C080,0.0,0.0,0.0,0.0,0.0,0.0,"$VNINS,000357.326256,0000,C080,-080.227,-005.354,-001.093,+00.00000000,+000.00000000,+00000.000,+000.000,+000.000,+000.000,99.99,99.99,9.999*2C"
119,4.760058424000022,vn200,VNINS,-80.227,-5.355,-1.093,,,,,,,,,,357.351257,0000,C080,0.0,0.0,0.0,0.0,0.0,0.0,"$VNINS,000357.351257,0000,C080,-080.227,-005.355,-001.093,+00.00000000,+000.00000000,+00000.000,+000.000,+000.000,+000.000,99.99,99.99,9.999*2C"
120,4.800057282000012,vn200,VNINS,-80.227,-5.357,-1.092,,,,,,,,,,357.376256,0000,C080,0.0,0.0,0.0,0.0,0.0,0.0,"$VNINS,000357.376256,0000,C080,-080.227,-005.357,-001.092,+00.00000000,+000.00000000,+00000.000,+000.000,+000.000,+000.000,99.99,99.99,9.999*2B"
121,4.840058122000016,vn200,VNINS,-80.228,-5.357,-1.092,,,,,,,,,,357.401257,0000,4880,0.0,0.0,0.0,0.0,0.0,0.0,"$VNINS,000357.401257,0000,4880,-080.228,-005.357,-001.092,+00.00000000,+000.00000000,+00000.000,+000.000,+000.000,+000.000,99.99,99.99,9.999*5D"
122,4.880058424000026,vn200,VNINS,-80.229,-5.355,-1.091,,,,,,,,,,357.426256,0000,4880,0.0,0.0,0.0,0.0,0.0,0.0,"$VNINS,000357.426256,0000,4880,-080.229,-005.355,-001.091,+00.00000000,+000.00000000,+00000.000,+000.000,+000.000,+000.000,99.99,99.99,9.999*59"
123,4.920057837000002,vn200,VNINS,-80.228,-5.356,-1.093,,,,,,,,,,357.451257,0000,E080,0.0,0.0,0.0,0.0,0.0,0.0,"$VNINS,000357.451257,0000,E080,-080.228,-005.356,-001.093,+00.00000000,+000.00000000,+00000.000,+000.000,+000.000,+000.000,99.99,99.99,9.999*21"
124,4.960058047000018,vn200,VNINS,-80.228,-5.356,-1.092,,,,,,,,,,357.476257,0000,E080,0.0,0.0,0.0,0.0,0.0,0.0,"$VNINS,000357.476257,0000,E080,-080.228,-005.356,-001.092,+00.00000000,+000.00000000,+00000.000,+000.000,+000.000,+000.000,99.99,99.99,9.999*25"
