sample,time_s,sensor,message_type,yaw_deg,pitch_deg,roll_deg,mag_x_gauss,mag_y_gauss,mag_z_gauss,accel_x_mps2,accel_y_mps2,accel_z_mps2,gyro_x_radps,gyro_y_radps,gyro_z_radps,gps_time_s,gps_week,ins_status,latitude_deg,longitude_deg,altitude_m,vel_n_mps,vel_e_mps,vel_d_mps,raw_message
0,0.0002094430001307046,vn200,VNYMR,-83.459,6.618,0.083,0.0253,0.0538,0.2636,1.095,-0.018,-9.523,9.2e-05,-0.000571,-0.000501,,,,,,,,,,"$VNYMR,-083.459,+006.618,+000.083,+00.0253,+00.0538,+00.2636,+01.095,-00.018,-09.523,+00.000092,-00.000571,-00.000501*67"
1,0.04005941900140897,vn200,VNYMR,-83.457,6.617,0.084,0.026,0.0553,0.2638,1.118,-0.007,-9.532,-0.000143,0.000679,0.00083,,,,,,,,,,"$VNYMR,-083.457,+006.617,+000.084,+00.0260,+00.0553,+00.2638,+01.118,-00.007,-09.532,-00.000143,+00.000679,+00.000830*67"
2,0.0800566540001455,vn200,VNYMR,-83.457,6.617,0.083,0.0253,0.056,0.2633,1.103,-0.021,-9.559,-0.00044,-0.000772,0.000504,,,,,,,,,,"$VNYMR,-083.457,+006.617,+000.083,+00.0253,+00.0560,+00.2633,+01.103,-00.021,-09.559,-00.000440,-00.000772,+00.000504*68"
3,0.12005787000089185,vn200,VNYMR,-83.458,6.616,0.084,0.0267,0.0536,0.2626,1.099,-0.002,-9.526,0.000691,0.000543,0.0004,,,,,,,,,,"$VNYMR,-083.458,+006.616,+000.084,+00.0267,+00.0536,+00.2626,+01.099,-00.002,-09.526,+00.000691,+00.000543,+00.000400*61"
4,0.16005682700051693,vn200,VNYMR,-83.458,6.615,0.084,0.0267,0.0548,0.2662,1.096,-0.016,-9.546,-0.000955,0.000761,-0.000675,,,,,,,,,,"$VNYMR,-083.458,+006.615,+000.084,+00.0267,+00.0548,+00.2662,+01.096,-00.016,-09.546,-00.000955,+00.000761,-00.000675*62"
5,0.20005854300143255,vn200,VNYMR,-83.458,6.615,0.084,0.0257,0.0533,0.2658,1.093,-0.025,-9.539,-2.4e-05,0.000343,0.001071,,,,,,,,,,"$VNYMR,-083.458,+006.615,+000.084,+00.0257,+00.0533,+00.2658,+01.093,-00.025,-09.539,-00.000024,+00.000343,+00.001071*67"
6,0.2400569630008249,vn200,VNYMR,-83.459,6.615,0.084,0.026,0.0531,0.2626,1.1,0.008,-9.547,0.000344,-0.000715,-0.000478,,,,,,,,,,"$VNYMR,-083.459,+006.615,+000.084,+00.0260,+00.0531,+00.2626,+01.100,+00.008,-09.547,+00.000344,-00.000715,-00.000478*6A"
7,0.28005597600167675,vn200,VNYMR,-83.458,6.614,0.083,0.0262,0.0536,0.2636,1.086,-0.008,-9.547,0.000661,-0.000425,-0.000815,,,,,,,,,,"$VNYMR,-083.458,+006.614,+000.083,+00.0262,+00.0536,+00.2636,+01.086,-00.008,-09.547,+00.000661,-00.000425,-00.000815*65"
8,0.3200561920002656,vn200,VNYMR,-83.456,6.614,0.084,0.0262,0.0524,0.2638,1.109,-0.022,-9.532,-7.6e-05,0.000417,0.00131,,,,,,,,,,"$VNYMR,-083.456,+006.614,+000.084,+00.0262,+00.0524,+00.2638,+01.109,-00.022,-09.532,-00.000076,+00.000417,+00.001310*65"
9,0.3600557600002503,vn200,VNYMR,-83.456,6.614,0.084,0.0255,0.0548,0.2636,1.097,-0.009,-9.569,0.000172,-0.000334,-0.001172,,,,,,,,,,"$VNYMR,-083.456,+006.614,+000.084,+00.0255,+00.0548,+00.2636,+01.097,-00.009,-09.569,+00.000172,-00.000334,-00.001172*67"
10,0.4000554580015887,vn200,VNYMR,-83.457,6.614,0.084,0.025,0.0541,0.2643,1.1,-0.036,-9.539,0.000176,5.2e-05,-0.000165,,,,,,,,,,"$VNYMR,-083.457,+006.614,+000.084,+00.0250,+00.0541,+00.2643,+01.100,-00.036,-09.539,+00.000176,+00.000052,-00.000165*68"
11,0.44005556299998716,vn200,VNYMR,-83.457,6.613,0.085,0.0255,0.0526,0.2624,1.125,-0.024,-9.54,0.000876,0.00037,-0.000399,,,,,,,,,,"$VNYMR,-083.457,+006.613,+000.085,+00.0255,+00.0526,+00.2624,+01.125,-00.024,-09.540,+00.000876,+00.000370,-00.000399*6A"
12,0.4800563720000355,vn200,VNYMR,-83.459,6.611,0.084,0.026,0.0533,0.2638,1.088,-0.018,-9.523,-2.9e-05,-0.000413,-0.000625,,,,,,,,,,"$VNYMR,-083.459,+006.611,+000.084,+00.0260,+00.0533,+00.2638,+01.088,-00.018,-09.523,-00.000029,-00.000413,-00.000625*66"
13,0.5200568850013951,vn200,VNYMR,-83.46,6.61,0.085,0.0253,0.0538,0.2657,1.116,-0.01,-9.571,0.000492,-0.000282,-0.000483,,,,,,,,,,"$VNYMR,-083.460,+006.610,+000.085,+00.0253,+00.0538,+00.2657,+01.116,-00.010,-09.571,+00.000492,-00.000282,-00.000483*65"
14,0.5600546380010201,vn200,VNYMR,-83.46,6.612,0.086,0.0262,0.0538,0.2646,1.096,-0.042,-9.56,-0.000168,0.000594,0.000796,,,,,,,,,,"$VNYMR,-083.460,+006.612,+000.086,+00.0262,+00.0538,+00.2646,+01.096,-00.042,-09.560,-00.000168,+00.000594,+00.000796*69"
15,0.6000555390000955,vn200,VNYMR,-83.459,6.614,0.084,0.026,0.0538,0.266,1.095,-0.038,-9.537,-0.000355,-0.000415,0.001431,,,,,,,,,,"$VNYMR,-083.459,+006.614,+000.084,+00.0260,+00.0538,+00.2660,+01.095,-00.038,-09.537,-00.000355,-00.000415,+00.001431*60"
16,0.6400557740016666,vn200,VNYMR,-83.458,6.615,0.085,0.0253,0.0543,0.2634,1.106,0.003,-9.536,0.000106,0.000398,-6.5e-05,,,,,,,,,,"$VNYMR,-083.458,+006.615,+000.085,+00.0253,+00.0543,+00.2634,+01.106,+00.003,-09.536,+00.000106,+00.000398,-00.000065*6C"
17,0.6800593980005942,vn200,VNYMR,-83.457,6.614,0.084,0.025,0.0543,0.2643,1.114,-0.014,-9.547,0.000475,0.00037,-0.000105,,,,,,,,,,"$VNYMR,-083.457,+006.614,+000.084,+00.0250,+00.0543,+00.2643,+01.114,-00.014,-09.547,+00.000475,+00.000370,-00.000105*65"
18,0.720057299000473,vn200,VNYMR,-83.458,6.614,0.085,0.0269,0.0548,0.2626,1.094,-0.043,-9.537,0.000365,-2e-06,0.000395,,,,,,,,,,"$VNYMR,-083.458,+006.614,+000.085,+00.0269,+00.0548,+00.2626,+01.094,-00.043,-09.537,+00.000365,-00.000002,+00.000395*6E"
19,0.7600607010008389,vn200,VNYMR,-83.457,6.614,0.085,0.0251,0.0548,0.2631,1.104,-0.021,-9.53,0.000421,0.000519,-0.001333,,,,,,,,,,"$VNYMR,-083.457,+006.614,+000.085,+00.0251,+00.0548,+00.2631,+01.104,-00.021,-09.530,+00.000421,+00.000519,-00.001333*62"
20,0.8000558430012461,vn200,VNYMR,-83.458,6.612,0.084,0.0265,0.0543,0.2641,1.099,-0.017,-9.529,-0.000818,-0.000532,0.000327,,,,,,,,,,"$VNYMR,-083.458,+006.612,+000.084,+00.0265,+00.0543,+00.2641,+01.099,-00.017,-09.529,-00.000818,-00.000532,+00.000327*64"
21,0.840056615001231,vn200,VNYMR,-83.458,6.613,0.084,0.0255,0.0538,0.2634,1.107,-0.012,-9.527,0.000275,0.000451,0.000134,,,,,,,,,,"$VNYMR,-083.458,+006.613,+000.084,+00.0255,+00.0538,+00.2634,+01.107,-00.012,-09.527,+00.000275,+00.000451,+00.000134*60"
22,0.8800561269999889,vn200,VNYMR,-83.459,6.613,0.084,0.0255,0.0536,0.2631,1.119,-0.008,-9.506,-0.000128,-0.000347,-0.000585,,,,,,,,,,"$VNYMR,-083.459,+006.613,+000.084,+00.0255,+00.0536,+00.2631,+01.119,-00.008,-09.506,-00.000128,-00.000347,-00.000585*6E"
23,0.9200565099999949,vn200,VNYMR,-83.458,6.614,0.086,0.0262,0.0541,0.2646,1.065,-0.01,-9.546,0.000245,0.000172,-0.000887,,,,,,,,,,"$VNYMR,-083.458,+006.614,+000.086,+00.0262,+00.0541,+00.2646,+01.065,-00.010,-09.546,+00.000245,+00.000172,-00.000887*6A"
24,0.9600545040011639,vn200,VNYMR,-83.458,6.612,0.086,0.0257,0.0546,0.2653,1.127,-0.031,-9.543,-0.000305,-0.000147,-0.000669,,,,,,,,,,"$VNYMR,-083.458,+006.612,+000.086,+00.0257,+00.0546,+00.2653,+01.127,-00.031,-09.543,-00.000305,-00.000147,-00.000669*65"
25,1.0000557210005354,vn200,VNYMR,-83.459,6.613,0.086,0.0253,0.0536,0.2638,1.087,-0.006,-9.569,-1.9e-05,0.000225,-0.001079,,,,,,,,,,"$VNYMR,-083.459,+006.613,+000.086,+00.0253,+00.0536,+00.2638,+01.087,-00.006,-09.569,-00.000019,+00.000225,-00.001079*65"
26,1.0400568260010914,vn200,VNYMR,-83.457,6.612,0.085,0.026,0.0543,0.2641,1.117,-0.025,-9.51,-2.1e-05,-0.000361,0.000604,,,,,,,,,,"$VNYMR,-083.457,+006.612,+000.085,+00.0260,+00.0543,+00.2641,+01.117,-00.025,-09.510,-00.000021,-00.000361,+00.000604*65"
27,1.0800565240006108,vn200,VNYMR,-83.458,6.613,0.086,0.0262,0.0548,0.2641,1.106,-0.004,-9.538,-0.001069,5.4e-05,-9.2e-05,,,,,,,,,,"$VNYMR,-083.458,+006.613,+000.086,+00.0262,+00.0548,+00.2641,+01.106,-00.004,-09.538,-00.001069,+00.000054,-00.000092*69"
28,1.120056129000659,vn200,VNYMR,-83.458,6.611,0.084,0.0251,0.0553,0.2634,1.089,-0.007,-9.548,-0.00073,-0.000159,-9e-05,,,,,,,,,,"$VNYMR,-083.458,+006.611,+000.084,+00.0251,+00.0553,+00.2634,+01.089,-00.007,-09.548,-00.000730,-00.000159,-00.000090*61"
29,1.1600564750006015,vn200,VNYMR,-83.458,6.61,0.082,0.026,0.0538,0.2648,1.114,-0.012,-9.549,-0.000913,-0.001317,0.000181,,,,,,,,,,"$VNYMR,-083.458,+006.610,+000.082,+00.0260,+00.0538,+00.2648,+01.114,-00.012,-09.549,-00.000913,-00.001317,+00.000181*63"
30,1.200056821000544,vn200,VNYMR,-83.457,6.609,0.08,0.0269,0.0534,0.2634,1.105,-0.008,-9.527,9.5e-05,-0.000136,0.000521,,,,,,,,,,"$VNYMR,-083.457,+006.609,+000.080,+00.0269,+00.0534,+00.2634,+01.105,-00.008,-09.527,+00.000095,-00.000136,+00.000521*64"
31,1.240058241000952,vn200,VNYMR,-83.456,6.609,0.081,0.0255,0.0541,0.2643,1.1,0.016,-9.526,-0.000216,-0.000414,-7e-06,,,,,,,,,,"$VNYMR,-083.456,+006.609,+000.081,+00.0255,+00.0541,+00.2643,+01.100,+00.016,-09.526,-00.000216,-00.000414,-00.000007*69"
32,1.280057031000979,vn200,VNYMR,-83.456,6.606,0.08,0.0262,0.0533,0.2638,1.108,-0.028,-9.555,-0.000499,0.000936,-0.000569,,,,,,,,,,"$VNYMR,-083.456,+006.606,+000.080,+00.0262,+00.0533,+00.2638,+01.108,-00.028,-09.555,-00.000499,+00.000936,-00.000569*6A"
33,1.3200588950003294,vn200,VNYMR,-83.456,6.606,0.08,0.0255,0.0553,0.2631,1.093,-0.004,-9.524,0.000471,1.1e-05,-0.000522,,,,,,,,,,"$VNYMR,-083.456,+006.606,+000.080,+00.0255,+00.0553,+00.2631,+01.093,-00.004,-09.524,+00.000471,+00.000011,-00.000522*69"
34,1.3600587230012025,vn200,VNYMR,-83.455,6.607,0.079,0.0262,0.0555,0.2634,1.109,0.009,-9.543,0.000109,-0.000311,0.001498,,,,,,,,,,"$VNYMR,-083.455,+006.607,+000.079,+00.0262,+00.0555,+00.2634,+01.109,+00.009,-09.543,+00.000109,-00.000311,+00.001498*6A"
35,1.4000577730002988,vn200,VNYMR,-83.457,6.607,0.079,0.0265,0.0536,0.2626,1.114,-0.036,-9.485,0.000215,-0.001014,-0.001187,,,,,,,,,,"$VNYMR,-083.457,+006.607,+000.079,+00.0265,+00.0536,+00.2626,+01.114,-00.036,-09.485,+00.000215,-00.001014,-00.001187*60"
36,1.4400572480008123,vn200,VNYMR,-83.457,6.607,0.079,0.0262,0.0541,0.2653,1.128,-0.011,-9.551,-0.000326,0.000957,0.0002,,,,,,,,,,"$VNYMR,-083.457,+006.607,+000.079,+00.0262,+00.0541,+00.2653,+01.128,-00.011,-09.551,-00.000326,+00.000957,+00.000200*62"
37,1.4800579270013259,vn200,VNYMR,-83.457,6.607,0.079,0.0248,0.0541,0.2646,1.092,-0.002,-9.535,0.000375,-6.8e-05,-0.000227,,,,,,,,,,"$VNYMR,-083.457,+006.607,+000.079,+00.0248,+00.0541,+00.2646,+01.092,-00.002,-09.535,+00.000375,-00.000068,-00.000227*6E"
38,1.5200572180001473,vn200,VNYMR,-83.457,6.608,0.078,0.0257,0.0529,0.2631,1.104,-0.02,-9.53,-0.000218,-0.001253,-2.3e-05,,,,,,,,,,"$VNYMR,-083.457,+006.608,+000.078,+00.0257,+00.0529,+00.2631,+01.104,-00.020,-09.530,-00.000218,-00.001253,-00.000023*6A"
39,1.560055823001676,vn200,VNYMR,-83.457,6.609,0.078,0.0271,0.0519,0.2643,1.094,0.019,-9.548,0.001802,0.000687,0.000411,,,,,,,,,,"$VNYMR,-083.457,+006.609,+000.078,+00.0271,+00.0519,+00.2643,+01.094,+00.019,-09.548,+00.001802,+00.000687,+00.000411*6D"
40,1.6000576140013436,vn200,VNYMR,-83.458,6.609,0.079,0.0248,0.0528,0.2636,1.097,-0.017,-9.539,0.000125,-9.5e-05,-0.000186,,,,,,,,,,"$VNYMR,-083.458,+006.609,+000.079,+00.0248,+00.0528,+00.2636,+01.097,-00.017,-09.539,+00.000125,-00.000095,-00.000186*67"
41,1.6400597740012017,vn200,VNYMR,-83.458,6.608,0.08,0.026,0.0538,0.2643,1.122,-0.01,-9.54,-0.000392,0.000623,0.000287,,,,,,,,,,"$VNYMR,-083.458,+006.608,+000.080,+00.0260,+00.0538,+00.2643,+01.122,-00.010,-09.540,-00.000392,+00.000623,+00.000287*6E"
42,1.680058417001419,vn200,VNYMR,-83.459,6.608,0.079,0.026,0.0563,0.2629,1.102,-0.01,-9.54,-0.000417,-0.000293,-0.000405,,,,,,,,,,"$VNYMR,-083.459,+006.608,+000.079,+00.0260,+00.0563,+00.2629,+01.102,-00.010,-09.540,-00.000417,-00.000293,-00.000405*60"
43,1.7200572630008537,vn200,VNYMR,-83.459,6.611,0.079,0.025,0.0538,0.2648,1.113,-0.004,-9.538,0.000194,0.001372,-0.000564,,,,,,,,,,"$VNYMR,-083.459,+006.611,+000.079,+00.0250,+00.0538,+00.2648,+01.113,-00.004,-09.538,+00.000194,+00.001372,-00.000564*6F"
44,1.7600582009999926,vn200,VNYMR,-83.46,6.611,0.077,0.0257,0.0533,0.2641,1.1,0.004,-9.561,0.000518,0.000577,-0.001492,,,,,,,,,,"$VNYMR,-083.460,+006.611,+000.077,+00.0257,+00.0533,+00.2641,+01.100,+00.004,-09.561,+00.000518,+00.000577,-00.001492*6D"
45,1.800056862000929,vn200,VNYMR,-83.461,6.612,0.077,0.0269,0.0543,0.2622,1.095,-0.019,-9.526,0.00118,0.000462,0.001001,,,,,,,,,,"$VNYMR,-083.461,+006.612,+000.077,+00.0269,+00.0543,+00.2622,+01.095,-00.019,-09.526,+00.001180,+00.000462,+00.001001*6D"
46,1.8400568000015483,vn200,VNYMR,-83.461,6.612,0.077,0.0255,0.0541,0.2648,1.102,-0.005,-9.54,0.001042,0.000384,-0.000825,,,,,,,,,,"$VNYMR,-083.461,+006.612,+000.077,+00.0255,+00.0541,+00.2648,+01.102,-00.005,-09.540,+00.001042,+00.000384,-00.000825*67"
47,1.8800572760010255,vn200,VNYMR,-83.461,6.613,0.076,0.0253,0.0533,0.2641,1.106,-0.006,-9.538,-0.000409,0.000374,-0.000631,,,,,,,,,,"$VNYMR,-083.461,+006.613,+000.076,+00.0253,+00.0533,+00.2641,+01.106,-00.006,-09.538,-00.000409,+00.000374,-00.000631*6D"
48,1.9200564000002487,vn200,VNYMR,-83.462,6.614,0.078,0.026,0.0541,0.2641,1.117,-0.017,-9.575,-0.000606,0.000587,-0.000821,,,,,,,,,,"$VNYMR,-083.462,+006.614,+000.078,+00.0260,+00.0541,+00.2641,+01.117,-00.017,-09.575,-00.000606,+00.000587,-00.000821*63"
49,1.9600569869999163,vn200,VNYMR,-83.462,6.615,0.078,0.0258,0.0546,0.2626,1.13,-0.008,-9.523,0.000489,-0.000273,0.000145,,,,,,,,,,"$VNYMR,-083.462,+006.615,+000.078,+00.0258,+00.0546,+00.2626,+01.130,-00.008,-09.523,+00.000489,-00.000273,+00.000145*63"
50,2.000056499000493,vn200,VNYMR,-83.462,6.616,0.076,0.026,0.0546,0.2634,1.136,-0.01,-9.513,-0.000944,-0.000204,-0.000154,,,,,,,,,,"$VNYMR,-083.462,+006.616,+000.076,+00.0260,+00.0546,+00.2634,+01.136,-00.010,-09.513,-00.000944,-00.000204,-00.000154*66"
51,2.040058475000478,vn200,VNYMR,-83.461,6.615,0.076,0.026,0.055,0.261,1.129,-0.028,-9.541,-0.000394,0.0004,-8e-06,,,,,,,,,,"$VNYMR,-083.461,+006.615,+000.076,+00.0260,+00.0550,+00.2610,+01.129,-00.028,-09.541,-00.000394,+00.000400,-00.000008*6E"
52,2.080056358001457,vn200,VNYMR,-83.461,6.615,0.077,0.026,0.0529,0.2636,1.102,-0.027,-9.558,-0.000933,0.000333,0.00068,,,,,,,,,,"$VNYMR,-083.461,+006.615,+000.077,+00.0260,+00.0529,+00.2636,+01.102,-00.027,-09.558,-00.000933,+00.000333,+00.000680*6B"
53,2.1200587780003843,vn200,VNYMR,-83.459,6.612,0.078,0.026,0.0548,0.2655,1.107,-0.019,-9.538,0.000469,6.8e-05,-0.000197,,,,,,,,,,"$VNYMR,-083.459,+006.612,+000.078,+00.0260,+00.0548,+00.2655,+01.107,-00.019,-09.538,+00.000469,+00.000068,-00.000197*6A"
54,2.1600580680005805,vn200,VNYMR,-83.459,6.612,0.077,0.0267,0.0534,0.2643,1.104,0.013,-9.549,-0.000893,-0.001564,0.001549,,,,,,,,,,"$VNYMR,-083.459,+006.612,+000.077,+00.0267,+00.0534,+00.2643,+01.104,+00.013,-09.549,-00.000893,-00.001564,+00.001549*66"
55,2.2000633770003333,vn200,VNYMR,-83.46,6.612,0.077,0.025,0.0536,0.2648,1.091,-0.006,-9.543,0.000235,0.001017,0.000355,,,,,,,,,,"$VNYMR,-083.460,+006.612,+000.077,+00.0250,+00.0536,+00.2648,+01.091,-00.006,-09.543,+00.000235,+00.001017,+00.000355*69"
56,2.240058631001375,vn200,VNYMR,-83.461,6.611,0.077,0.0258,0.055,0.2648,1.092,-0.002,-9.542,0.000349,-6.3e-05,1.5e-05,,,,,,,,,,"$VNYMR,-083.461,+006.611,+000.077,+00.0258,+00.0550,+00.2648,+01.092,-00.002,-09.542,+00.000349,-00.000063,+00.000015*6C"
57,2.280068291000134,vn200,VNYMR,-83.46,6.61,0.077,0.0265,0.0558,0.2631,1.096,-0.004,-9.535,0.000385,-0.000168,-0.001332,,,,,,,,,,"$VNYMR,-083.460,+006.610,+000.077,+00.0265,+00.0558,+00.2631,+01.096,-00.004,-09.535,+00.000385,-00.000168,-00.001332*6D"
58,2.3200577850002446,vn200,VNYMR,-83.461,6.611,0.076,0.0255,0.0541,0.265,1.082,-0.019,-9.547,0.000517,-0.000713,-0.000726,,,,,,,,,,"$VNYMR,-083.461,+006.611,+000.076,+00.0255,+00.0541,+00.2650,+01.082,-00.019,-09.547,+00.000517,-00.000713,-00.000726*6B"
59,2.3600582430008217,vn200,VNYMR,-83.46,6.611,0.076,0.0253,0.0536,0.2641,1.117,-0.029,-9.538,-0.000149,5.3e-05,-7.9e-05,,,,,,,,,,"$VNYMR,-083.460,+006.611,+000.076,+00.0253,+00.0536,+00.2641,+01.117,-00.029,-09.538,-00.000149,+00.000053,-00.000079*6B"
60,2.4000578110008064,vn200,VNYMR,-83.46,6.614,0.076,0.0265,0.0546,0.2626,1.11,-0.02,-9.552,0.0004,0.000719,0.000259,,,,,,,,,,"$VNYMR,-083.460,+006.614,+000.076,+00.0265,+00.0546,+00.2626,+01.110,-00.020,-09.552,+00.000400,+00.000719,+00.000259*6E"
61,2.440058657000918,vn200,VNYMR,-83.46,6.614,0.076,0.026,0.0546,0.2629,1.121,-0.01,-9.57,-0.000672,0.000585,0.0012,,,,,,,,,,"$VNYMR,-083.460,+006.614,+000.076,+00.0260,+00.0546,+00.2629,+01.121,-00.010,-09.570,-00.000672,+00.000585,+00.001200*6E"
62,2.4800573360007547,vn200,VNYMR,-83.46,6.613,0.077,0.0248,0.0548,0.2619,1.102,-0.019,-9.547,0.000383,-5.2e-05,0.001086,,,,,,,,,,"$VNYMR,-083.460,+006.613,+000.077,+00.0248,+00.0548,+00.2619,+01.102,-00.019,-09.547,+00.000383,-00.000052,+00.001086*6B"
63,2.5200587380004436,vn200,VNYMR,-83.461,6.613,0.076,0.0255,0.0541,0.2655,1.091,0.0,-9.526,-0.000228,-2.7e-05,0.000133,,,,,,,,,,"$VNYMR,-083.461,+006.613,+000.076,+00.0255,+00.0541,+00.2655,+01.091,+00.000,-09.526,-00.000228,-00.000027,+00.000133*6E"
64,2.5600572880011896,vn200,VNYMR,-83.461,6.613,0.075,0.0253,0.0545,0.2622,1.119,0.023,-9.53,-0.000517,-0.000398,-0.001156,,,,,,,,,,"$VNYMR,-083.461,+006.613,+000.075,+00.0253,+00.0545,+00.2622,+01.119,+00.023,-09.530,-00.000517,-00.000398,-00.001156*60"
65,2.6000581520002015,vn200,VNYMR,-83.462,6.612,0.075,0.0253,0.0536,0.2641,1.108,-0.027,-9.534,0.000814,-0.002158,-0.000121,,,,,,,,,,"$VNYMR,-083.462,+006.612,+000.075,+00.0253,+00.0536,+00.2641,+01.108,-00.027,-09.534,+00.000814,-00.002158,-00.000121*60"
66,2.640057220000017,vn200,VNYMR,-83.462,6.612,0.075,0.026,0.0553,0.2636,1.101,-0.016,-9.541,-0.000612,-0.001104,0.000562,,,,,,,,,,"$VNYMR,-083.462,+006.612,+000.075,+00.0260,+00.0553,+00.2636,+01.101,-00.016,-09.541,-00.000612,-00.001104,+00.000562*6B"
67,2.6800585110013344,vn200,VNYMR,-83.462,6.611,0.074,0.0262,0.0529,0.2641,1.1,-0.011,-9.583,-0.000412,-0.000834,-0.00073,,,,,,,,,,"$VNYMR,-083.462,+006.611,+000.074,+00.0262,+00.0529,+00.2641,+01.100,-00.011,-09.583,-00.000412,-00.000834,-00.000730*64"
68,2.7200597270002618,vn200,VNYMR,-83.463,6.611,0.073,0.026,0.055,0.2645,1.097,-0.002,-9.555,-0.001169,0.000483,-0.000326,,,,,,,,,,"$VNYMR,-083.463,+006.611,+000.073,+00.0260,+00.0550,+00.2645,+01.097,-00.002,-09.555,-00.001169,+00.000483,-00.000326*61"
69,2.7600574620009866,vn200,VNYMR,-83.463,6.612,0.073,0.026,0.0536,0.2643,1.122,-0.047,-9.561,-0.000177,-0.000201,0.00028,,,,,,,,,,"$VNYMR,-083.463,+006.612,+000.073,+00.0260,+00.0536,+00.2643,+01.122,-00.047,-09.561,-00.000177,-00.000201,+00.000280*62"
70,2.800057104001098,vn200,VNYMR,-83.461,6.614,0.073,0.0271,0.0536,0.2646,1.136,-0.009,-9.556,-0.00025,0.001346,-0.000301,,,,,,,,,,"$VNYMR,-083.461,+006.614,+000.073,+00.0271,+00.0536,+00.2646,+01.136,-00.009,-09.556,-00.000250,+00.001346,-00.000301*65"
71,2.8400590430010197,vn200,VNYMR,-83.461,6.614,0.075,0.0248,0.0543,0.2629,1.101,-0.019,-9.552,0.000823,-0.000201,0.000224,,,,,,,,,,"$VNYMR,-083.461,+006.614,+000.075,+00.0248,+00.0543,+00.2629,+01.101,-00.019,-09.552,+00.000823,-00.000201,+00.000224*6E"
72,2.880057519001639,vn200,VNYMR,-83.462,6.615,0.076,0.026,0.0526,0.2631,1.105,-0.033,-9.535,0.00081,0.001103,4.5e-05,,,,,,,,,,"$VNYMR,-083.462,+006.615,+000.076,+00.0260,+00.0526,+00.2631,+01.105,-00.033,-09.535,+00.000810,+00.001103,+00.000045*61"
73,2.9200574200003757,vn200,VNYMR,-83.461,6.615,0.078,0.026,0.0538,0.2646,1.124,-0.028,-9.529,0.000155,-0.000905,0.001116,,,,,,,,,,"$VNYMR,-083.461,+006.615,+000.078,+00.0260,+00.0538,+00.2646,+01.124,-00.028,-09.529,+00.000155,-00.000905,+00.001116*60"
74,2.9600563399999373,vn200,VNYMR,-83.46,6.615,0.078,0.0253,0.0543,0.2629,1.095,-0.032,-9.555,-0.000568,0.000561,-0.000275,,,,,,,,,,"$VNYMR,-083.460,+006.615,+000.078,+00.0253,+00.0543,+00.2629,+01.095,-00.032,-09.555,-00.000568,+00.000561,-00.000275*6A"
75,3.000056298000345,vn200,VNYMR,-83.461,6.616,0.077,0.0246,0.0548,0.2629,1.128,-0.024,-9.524,0.000244,0.000572,0.000308,,,,,,,,,,"$VNYMR,-083.461,+006.616,+000.077,+00.0246,+00.0548,+00.2629,+01.128,-00.024,-09.524,+00.000244,+00.000572,+00.000308*6E"
76,3.040058661999865,vn200,VNYMR,-83.461,6.616,0.077,0.025,0.0538,0.2643,1.112,0.002,-9.469,9.4e-05,-0.001024,-3.9e-05,,,,,,,,,,"$VNYMR,-083.461,+006.616,+000.077,+00.0250,+00.0538,+00.2643,+01.112,+00.002,-09.469,+00.000094,-00.001024,-00.000039*68"
77,3.080058730000019,vn200,VNYMR,-83.461,6.618,0.077,0.0255,0.0548,0.2646,1.113,-0.019,-9.534,0.000365,-0.00094,-0.000805,,,,,,,,,,"$VNYMR,-083.461,+006.618,+000.077,+00.0255,+00.0548,+00.2646,+01.113,-00.019,-09.534,+00.000365,-00.000940,-00.000805*65"
78,3.1200579470005323,vn200,VNYMR,-83.461,6.618,0.077,0.026,0.0558,0.265,1.101,-0.016,-9.533,-0.000674,-0.000256,-0.000458,,,,,,,,,,"$VNYMR,-083.461,+006.618,+000.077,+00.0260,+00.0558,+00.2650,+01.101,-00.016,-09.533,-00.000674,-00.000256,-00.000458*65"
79,3.160058867000771,vn200,VNYMR,-83.461,6.617,0.076,0.0255,0.0529,0.2653,1.105,-0.009,-9.568,0.000334,0.000733,0.000672,,,,,,,,,,"$VNYMR,-083.461,+006.617,+000.076,+00.0255,+00.0529,+00.2653,+01.105,-00.009,-09.568,+00.000334,+00.000733,+00.000672*67"
80,3.2000629720005236,vn200,VNYMR,-83.461,6.617,0.076,0.0265,0.0548,0.2643,1.122,-0.046,-9.551,1.7e-05,-0.000475,-0.000268,,,,,,,,,,"$VNYMR,-083.461,+006.617,+000.076,+00.0265,+00.0548,+00.2643,+01.122,-00.046,-09.551,+00.000017,-00.000475,-00.000268*6A"
81,3.240057947999958,vn200,VNYMR,-83.461,6.617,0.075,0.0264,0.0538,0.2653,1.095,-0.01,-9.552,-0.00125,0.000564,-0.000221,,,,,,,,,,"$VNYMR,-083.461,+006.617,+000.075,+00.0264,+00.0538,+00.2653,+01.095,-00.010,-09.552,-00.001250,+00.000564,-00.000221*6F"
82,3.2800555900012114,vn200,VNYMR,-83.462,6.617,0.074,0.0255,0.0538,0.2646,1.086,-0.029,-9.542,-0.000455,0.000587,0.000603,,,,,,,,,,"$VNYMR,-083.462,+006.617,+000.074,+00.0255,+00.0538,+00.2646,+01.086,-00.029,-09.542,-00.000455,+00.000587,+00.000603*6F"
83,3.3200565470015135,vn200,VNYMR,-83.462,6.617,0.074,0.0262,0.0541,0.2653,1.108,-0.036,-9.55,7.6e-05,-0.000252,0.000119,,,,,,,,,,"$VNYMR,-083.462,+006.617,+000.074,+00.0262,+00.0541,+00.2653,+01.108,-00.036,-09.550,+00.000076,-00.000252,+00.000119*6D"
84,3.360057782001604,vn200,VNYMR,-83.462,6.619,0.073,0.026,0.0538,0.2638,1.098,0.0,-9.563,0.000332,0.000187,-0.000861,,,,,,,,,,"$VNYMR,-083.462,+006.619,+000.073,+00.0260,+00.0538,+00.2638,+01.098,+00.000,-09.563,+00.000332,+00.000187,-00.000861*60"
85,3.400056462000066,vn200,VNYMR,-83.462,6.62,0.074,0.0255,0.0541,0.2629,1.131,-0.017,-9.549,-6.6e-05,0.000302,-0.000473,,,,,,,,,,"$VNYMR,-083.462,+006.620,+000.074,+00.0255,+00.0541,+00.2629,+01.131,-00.017,-09.549,-00.000066,+00.000302,-00.000473*6B"
86,3.440056289000495,vn200,VNYMR,-83.461,6.621,0.075,0.026,0.0538,0.2636,1.103,-0.019,-9.536,-1.7e-05,0.000213,0.00086,,,,,,,,,,"$VNYMR,-083.461,+006.621,+000.075,+00.0260,+00.0538,+00.2636,+01.103,-00.019,-09.536,-00.000017,+00.000213,+00.000860*66"
87,3.480055487001664,vn200,VNYMR,-83.46,6.621,0.074,0.025,0.0524,0.2646,1.112,-0.005,-9.511,-0.000139,0.001292,-8.7e-05,,,,,,,,,,"$VNYMR,-083.460,+006.621,+000.074,+00.0250,+00.0524,+00.2646,+01.112,-00.005,-09.511,-00.000139,+00.001292,-00.000087*65"
88,3.5200562410009297,vn200,VNYMR,-83.461,6.621,0.073,0.026,0.0521,0.2638,1.109,-0.008,-9.555,-0.000186,-0.00081,-0.000778,,,,,,,,,,"$VNYMR,-083.461,+006.621,+000.073,+00.0260,+00.0521,+00.2638,+01.109,-00.008,-09.555,-00.000186,-00.000810,-00.000778*6F"
89,3.5600561420014856,vn200,VNYMR,-83.463,6.622,0.073,0.0262,0.0538,0.2612,1.121,-0.037,-9.538,0.001065,-0.000227,-0.000804,,,,,,,,,,"$VNYMR,-083.463,+006.622,+000.073,+00.0262,+00.0538,+00.2612,+01.121,-00.037,-09.538,+00.001065,-00.000227,-00.000804*60"
90,3.6000554700003704,vn200,VNYMR,-83.464,6.622,0.072,0.0262,0.0529,0.2634,1.102,0.001,-9.521,0.00022,-0.000851,-0.000392,,,,,,,,,,"$VNYMR,-083.464,+006.622,+000.072,+00.0262,+00.0529,+00.2634,+01.102,+00.001,-09.521,+00.000220,-00.000851,-00.000392*65"
91,3.640055483001561,vn200,VNYMR,-83.464,6.622,0.071,0.0262,0.0548,0.2626,1.121,-0.016,-9.509,-4e-06,8.2e-05,-0.000366,,,,,,,,,,"$VNYMR,-083.464,+006.622,+000.071,+00.0262,+00.0548,+00.2626,+01.121,-00.016,-09.509,-00.000004,+00.000082,-00.000366*60"
92,3.68005845800144,vn200,VNYMR,-83.464,6.623,0.072,0.0262,0.0543,0.2638,1.125,-0.036,-9.515,-0.000631,-0.001235,-0.000731,,,,,,,,,,"$VNYMR,-083.464,+006.623,+000.072,+00.0262,+00.0543,+00.2638,+01.125,-00.036,-09.515,-00.000631,-00.001235,-00.000731*62"
93,3.7200563050009805,vn200,VNYMR,-83.465,6.623,0.073,0.0258,0.0541,0.2638,1.114,-0.018,-9.548,9.2e-05,-0.002101,-0.000628,,,,,,,,,,"$VNYMR,-083.465,+006.623,+000.073,+00.0258,+00.0541,+00.2638,+01.114,-00.018,-09.548,+00.000092,-00.002101,-00.000628*68"
94,3.7600559649999923,vn200,VNYMR,-83.464,6.624,0.071,0.0265,0.0538,0.2631,1.123,-0.011,-9.532,-0.001876,-0.001046,7.2e-05,,,,,,,,,,"$VNYMR,-083.464,+006.624,+000.071,+00.0265,+00.0538,+00.2631,+01.123,-00.011,-09.532,-00.001876,-00.001046,+00.000072*6E"
95,3.800055830000929,vn200,VNYMR,-83.463,6.625,0.068,0.0262,0.0553,0.2638,1.091,-0.01,-9.535,0.000142,0.000757,0.000602,,,,,,,,,,"$VNYMR,-083.463,+006.625,+000.068,+00.0262,+00.0553,+00.2638,+01.091,-00.010,-09.535,+00.000142,+00.000757,+00.000602*65"
96,3.8400568980014214,vn200,VNYMR,-83.462,6.624,0.07,0.0262,0.0538,0.2631,1.101,-0.022,-9.526,-0.001003,0.000834,-0.000463,,,,,,,,,,"$VNYMR,-083.462,+006.624,+000.070,+00.0262,+00.0538,+00.2631,+01.101,-00.022,-09.526,-00.001003,+00.000834,-00.000463*69"
97,3.880058448001364,vn200,VNYMR,-83.463,6.624,0.067,0.0269,0.0536,0.2641,1.118,0.004,-9.533,0.001101,0.000185,-0.000304,,,,,,,,,,"$VNYMR,-083.463,+006.624,+000.067,+00.0269,+00.0536,+00.2641,+01.118,+00.004,-09.533,+00.001101,+00.000185,-00.000304*62"
98,3.920058202000291,vn200,VNYMR,-83.464,6.625,0.069,0.0258,0.0548,0.2636,1.108,-0.026,-9.515,-0.000184,-0.000144,-0.000348,,,,,,,,,,"$VNYMR,-083.464,+006.625,+000.069,+00.0258,+00.0548,+00.2636,+01.108,-00.026,-09.515,-00.000184,-00.000144,-00.000348*6B"
99,3.9600561400002334,vn200,VNYMR,-83.462,6.626,0.071,0.0264,0.0531,0.2627,1.1,-0.027,-9.529,-0.001532,0.000191,0.000373,,,,,,,,,,"$VNYMR,-083.462,+006.626,+000.071,+00.0264,+00.0531,+00.2627,+01.100,-00.027,-09.529,-00.001532,+00.000191,+00.000373*68"
100,4.000055672000599,vn200,VNYMR,-83.462,6.625,0.072,0.0265,0.0536,0.2629,1.106,-0.0,-9.529,5.2e-05,0.000666,0.001014,,,,,,,,,,"$VNYMR,-083.462,+006.625,+000.072,+00.0265,+00.0536,+00.2629,+01.106,-00.000,-09.529,+00.000052,+00.000666,+00.001014*6B"
101,4.040058388000034,vn200,VNYMR,-83.462,6.624,0.073,0.0251,0.0548,0.2641,1.109,-0.011,-9.547,-0.000243,0.000587,8.1e-05,,,,,,,,,,"$VNYMR,-083.462,+006.624,+000.073,+00.0251,+00.0548,+00.2641,+01.109,-00.011,-09.547,-00.000243,+00.000587,+00.000081*69"
102,4.080057475001013,vn200,VNYMR,-83.462,6.624,0.072,0.0262,0.0524,0.2641,1.112,-0.012,-9.535,-0.000629,0.000324,-0.000714,,,,,,,,,,"$VNYMR,-083.462,+006.624,+000.072,+00.0262,+00.0524,+00.2641,+01.112,-00.012,-09.535,-00.000629,+00.000324,-00.000714*64"
103,4.120057617001294,vn200,VNYMR,-83.462,6.624,0.074,0.0258,0.0548,0.2636,1.094,-0.01,-9.505,-0.000795,0.001408,-0.001399,,,,,,,,,,"$VNYMR,-083.462,+006.624,+000.074,+00.0258,+00.0548,+00.2636,+01.094,-00.010,-09.505,-00.000795,+00.001408,-00.001399*61"
104,4.160057834000327,vn200,VNYMR,-83.461,6.623,0.074,0.025,0.0536,0.2641,1.112,-0.031,-9.501,-3.7e-05,-0.000864,0.000663,,,,,,,,,,"$VNYMR,-083.461,+006.623,+000.074,+00.0250,+00.0536,+00.2641,+01.112,-00.031,-09.501,-00.000037,-00.000864,+00.000663*65"
105,4.2000628280002275,vn200,VNYMR,-83.462,6.624,0.074,0.0265,0.0538,0.2631,1.097,-0.01,-9.512,-0.001411,-0.000487,0.000275,,,,,,,,,,"$VNYMR,-083.462,+006.624,+000.074,+00.0265,+00.0538,+00.2631,+01.097,-00.010,-09.512,-00.001411,-00.000487,+00.000275*60"
106,4.240058452000085,vn200,VNYMR,-83.462,6.624,0.074,0.0258,0.0548,0.2641,1.101,-0.018,-9.51,0.000803,-0.000186,-0.000551,,,,,,,,,,"$VNYMR,-083.462,+006.624,+000.074,+00.0258,+00.0548,+00.2641,+01.101,-00.018,-09.510,+00.000803,-00.000186,-00.000551*61"
107,4.280056798001169,vn200,VNYMR,-83.461,6.623,0.075,0.0264,0.0536,0.2643,1.122,-0.033,-9.541,0.000611,-0.001533,0.000323,,,,,,,,,,"$VNYMR,-083.461,+006.623,+000.075,+00.0264,+00.0536,+00.2643,+01.122,-00.033,-09.541,+00.000611,-00.001533,+00.000323*6F"
108,4.320056625001598,vn200,VNYMR,-83.459,6.623,0.074,0.0271,0.0538,0.2646,1.097,-0.013,-9.539,-0.000411,0.000268,-0.000126,,,,,,,,,,"$VNYMR,-083.459,+006.623,+000.074,+00.0271,+00.0538,+00.2646,+01.097,-00.013,-09.539,-00.000411,+00.000268,-00.000126*63"
109,4.360056842000631,vn200,VNYMR,-83.459,6.623,0.074,0.0269,0.0536,0.2638,1.12,-0.015,-9.516,0.000381,0.000347,-0.000422,,,,,,,,,,"$VNYMR,-083.459,+006.623,+000.074,+00.0269,+00.0536,+00.2638,+01.120,-00.015,-09.516,+00.000381,+00.000347,-00.000422*6E"
110,4.4000576510006795,vn200,VNYMR,-83.459,6.622,0.074,0.0246,0.056,0.2624,1.107,-0.013,-9.528,0.000592,-6.6e-05,-0.000658,,,,,,,,,,"$VNYMR,-083.459,+006.622,+000.074,+00.0246,+00.0560,+00.2624,+01.107,-00.013,-09.528,+00.000592,-00.000066,-00.000658*6F"
111,4.440057978999903,vn200,VNYMR,-83.46,6.621,0.075,0.0262,0.055,0.2622,1.107,-0.011,-9.548,-0.00028,-0.00101,-0.000307,,,,,,,,,,"$VNYMR,-083.460,+006.621,+000.075,+00.0262,+00.0550,+00.2622,+01.107,-00.011,-09.548,-00.000280,-00.001010,-00.000307*6D"
112,4.480058380000628,vn200,VNYMR,-83.46,6.622,0.074,0.0257,0.0529,0.2648,1.132,-0.011,-9.531,-0.001336,-2.6e-05,-0.000298,,,,,,,,,,"$VNYMR,-083.460,+006.622,+000.074,+00.0257,+00.0529,+00.2648,+01.132,-00.011,-09.531,-00.001336,-00.000026,-00.000298*6D"
113,4.520058430000063,vn200,VNYMR,-83.459,6.622,0.074,0.0258,0.0543,0.2643,1.094,-0.032,-9.555,-0.001065,0.000116,-4.3e-05,,,,,,,,,,"$VNYMR,-083.459,+006.622,+000.074,+00.0258,+00.0543,+00.2643,+01.094,-00.032,-09.555,-00.001065,+00.000116,-00.000043*64"
114,4.560057925000365,vn200,VNYMR,-83.459,6.622,0.073,0.0253,0.0546,0.2648,1.119,0.006,-9.512,-0.000205,0.000498,-0.000536,,,,,,,,,,"$VNYMR,-083.459,+006.622,+000.073,+00.0253,+00.0546,+00.2648,+01.119,+00.006,-09.512,-00.000205,+00.000498,-00.000536*61"
115,4.600057326000751,vn200,VNYMR,-83.46,6.622,0.072,0.026,0.055,0.2645,1.094,-0.032,-9.559,-0.000319,0.000983,-0.000418,,,,,,,,,,"$VNYMR,-083.460,+006.622,+000.072,+00.0260,+00.0550,+00.2645,+01.094,-00.032,-09.559,-00.000319,+00.000983,-00.000418*6C"
116,4.6400563580009475,vn200,VNYMR,-83.458,6.622,0.071,0.0257,0.0536,0.265,1.101,-0.034,-9.581,0.000605,-0.000213,0.001289,,,,,,,,,,"$VNYMR,-083.458,+006.622,+000.071,+00.0257,+00.0536,+00.2650,+01.101,-00.034,-09.581,+00.000605,-00.000213,+00.001289*69"
117,4.680057889001546,vn200,VNYMR,-83.456,6.621,0.072,0.026,0.0533,0.2638,1.11,0.001,-9.532,-0.000204,-7.2e-05,-0.000929,,,,,,,,,,"$VNYMR,-083.456,+006.621,+000.072,+00.0260,+00.0533,+00.2638,+01.110,+00.001,-09.532,-00.000204,-00.000072,-00.000929*60"
118,4.720056791000388,vn200,VNYMR,-83.456,6.619,0.07,0.0257,0.0538,0.2641,1.086,0.001,-9.526,-0.000675,0.001003,-0.000828,,,,,,,,,,"$VNYMR,-083.456,+006.619,+000.070,+00.0257,+00.0538,+00.2641,+01.086,+00.001,-09.526,-00.000675,+00.001003,-00.000828*60"
119,4.760055692000606,vn200,VNYMR,-83.457,6.619,0.068,0.0253,0.055,0.2619,1.112,-0.001,-9.524,0.000319,0.000153,-1e-05,,,,,,,,,,"$VNYMR,-083.457,+006.619,+000.068,+00.0253,+00.0550,+00.2619,+01.112,-00.001,-09.524,+00.000319,+00.000153,-00.000010*68"
120,4.80005622400131,vn200,VNYMR,-83.458,6.619,0.07,0.0264,0.0536,0.2643,1.128,0.002,-9.517,0.000419,-0.000463,0.001072,,,,,,,,,,"$VNYMR,-083.458,+006.619,+000.070,+00.0264,+00.0536,+00.2643,+01.128,+00.002,-09.517,+00.000419,-00.000463,+00.001072*6D"
121,4.840056218001337,vn200,VNYMR,-83.457,6.62,0.07,0.0269,0.056,0.2634,1.096,0.002,-9.501,-0.000606,0.001229,0.000861,,,,,,,,,,"$VNYMR,-083.457,+006.620,+000.070,+00.0269,+00.0560,+00.2634,+01.096,+00.002,-09.501,-00.000606,+00.001229,+00.000861*6B"
122,4.880055657000412,vn200,VNYMR,-83.456,6.619,0.07,0.0262,0.0536,0.2636,1.126,-0.0,-9.55,-0.000324,0.000321,0.000365,,,,,,,,,,"$VNYMR,-083.456,+006.619,+000.070,+00.0262,+00.0536,+00.2636,+01.126,-00.000,-09.550,-00.000324,+00.000321,+00.000365*62"
123,4.920056151000608,vn200,VNYMR,-83.457,6.619,0.07,0.0265,0.055,0.2634,1.094,-0.008,-9.514,-0.000564,-0.000279,-5e-06,,,,,,,,,,"$VNYMR,-083.457,+006.619,+000.070,+00.0265,+00.0550,+00.2634,+01.094,-00.008,-09.514,-00.000564,-00.000279,-00.000005*6D"
124,4.96005616399998,vn200,VNYMR,-83.456,6.62,0.069,0.0264,0.0533,0.2641,1.099,0.006,-9.539,0.000693,-0.000707,-0.000581,,,,,,,,,,"$VNYMR,-083.456,+006.620,+000.069,+00.0264,+00.0533,+00.2641,+01.099,+00.006,-09.539,+00.000693,-00.000707,-00.000581*6A"
125,5.00005606600098,vn200,VNYMR,-83.456,6.62,0.069,0.0262,0.0541,0.2622,1.072,-0.012,-9.516,0.000235,-0.001159,0.000454,,,,,,,,,,"$VNYMR,-083.456,+006.620,+000.069,+00.0262,+00.0541,+00.2622,+01.072,-00.012,-09.516,+00.000235,-00.001159,+00.000454*6C"
126,5.040057281999907,vn200,VNYMR,-83.456,6.62,0.069,0.0265,0.0546,0.2643,1.111,-0.041,-9.563,0.000125,0.00068,-0.000491,,,,,,,,,,"$VNYMR,-083.456,+006.620,+000.069,+00.0265,+00.0546,+00.2643,+01.111,-00.041,-09.563,+00.000125,+00.000680,-00.000491*62"
127,5.08005699900059,vn200,VNYMR,-83.456,6.621,0.069,0.0258,0.0543,0.2643,1.091,0.006,-9.544,0.000689,0.00061,0.000907,,,,,,,,,,"$VNYMR,-083.456,+006.621,+000.069,+00.0258,+00.0543,+00.2643,+01.091,+00.006,-09.544,+00.000689,+00.000610,+00.000907*6D"
128,5.120057956000892,vn200,VNYMR,-83.458,6.62,0.07,0.0248,0.0543,0.2653,1.116,-0.036,-9.5,-5.6e-05,-0.000465,-0.000702,,,,,,,,,,"$VNYMR,-083.458,+006.620,+000.070,+00.0248,+00.0543,+00.2653,+01.116,-00.036,-09.500,-00.000056,-00.000465,-00.000702*68"
129,5.160055987000305,vn200,VNYMR,-83.456,6.619,0.07,0.0264,0.0531,0.2629,1.11,0.003,-9.542,-0.000379,-0.000401,0.001498,,,,,,,,,,"$VNYMR,-083.456,+006.619,+000.070,+00.0264,+00.0531,+00.2629,+01.110,+00.003,-09.542,-00.000379,-00.000401,+00.001498*61"
130,5.20005977800065,vn200,VNYMR,-83.456,6.618,0.07,0.0255,0.0531,0.265,1.136,-0.025,-9.548,0.000309,0.000132,-0.00086,,,,,,,,,,"$VNYMR,-083.456,+006.618,+000.070,+00.0255,+00.0531,+00.2650,+01.136,-00.025,-09.548,+00.000309,+00.000132,-00.000860*6E"
131,5.240057846000127,vn200,VNYMR,-83.455,6.617,0.071,0.0258,0.055,0.2626,1.115,-0.002,-9.543,-0.000278,0.000447,0.000623,,,,,,,,,,"$VNYMR,-083.455,+006.617,+000.071,+00.0258,+00.0550,+00.2626,+01.115,-00.002,-09.543,-00.000278,+00.000447,+00.000623*6E"
132,5.280056100000365,vn200,VNYMR,-83.456,6.619,0.073,0.0257,0.0533,0.2641,1.123,-0.02,-9.541,0.000335,0.001371,0.000133,,,,,,,,,,"$VNYMR,-083.456,+006.619,+000.073,+00.0257,+00.0533,+00.2641,+01.123,-00.020,-09.541,+00.000335,+00.001371,+00.000133*66"
133,5.320056446000308,vn200,VNYMR,-83.455,6.621,0.073,0.0267,0.0536,0.2662,1.115,-0.027,-9.555,0.000258,-9e-06,-0.000483,,,,,,,,,,"$VNYMR,-083.455,+006.621,+000.073,+00.0267,+00.0536,+00.2662,+01.115,-00.027,-09.555,+00.000258,-00.000009,-00.000483*67"
134,5.360058866001054,vn200,VNYMR,-83.455,6.622,0.072,0.0255,0.0538,0.2648,1.116,-0.014,-9.522,-0.001113,0.000683,-0.000448,,,,,,,,,,"$VNYMR,-083.455,+006.622,+000.072,+00.0255,+00.0538,+00.2648,+01.116,-00.014,-09.522,-00.001113,+00.000683,-00.000448*6F"
135,5.400055897000129,vn200,VNYMR,-83.454,6.621,0.071,0.0253,0.0548,0.2645,1.102,-0.033,-9.532,-0.000997,-0.00057,-1.7e-05,,,,,,,,,,"$VNYMR,-083.454,+006.621,+000.071,+00.0253,+00.0548,+00.2645,+01.102,-00.033,-09.532,-00.000997,-00.000570,-00.000017*61"
136,5.440056762001404,vn200,VNYMR,-83.452,6.622,0.072,0.0267,0.0548,0.2648,1.116,-0.022,-9.536,0.001012,0.000171,-8e-06,,,,,,,,,,"$VNYMR,-083.452,+006.622,+000.072,+00.0267,+00.0548,+00.2648,+01.116,-00.022,-09.536,+00.001012,+00.000171,-00.000008*62"
137,5.480055757001537,vn200,VNYMR,-83.453,6.622,0.072,0.0258,0.0546,0.2631,1.102,-0.006,-9.551,0.000239,0.000162,-0.001472,,,,,,,,,,"$VNYMR,-083.453,+006.622,+000.072,+00.0258,+00.0546,+00.2631,+01.102,-00.006,-09.551,+00.000239,+00.000162,-00.001472*6D"
138,5.5200565660015855,vn200,VNYMR,-83.453,6.621,0.072,0.026,0.0548,0.2641,1.104,-0.006,-9.516,0.001085,-0.000401,-0.000293,,,,,,,,,,"$VNYMR,-083.453,+006.621,+000.072,+00.0260,+00.0548,+00.2641,+01.104,-00.006,-09.516,+00.001085,-00.000401,-00.000293*63"
139,5.560056282000005,vn200,VNYMR,-83.453,6.621,0.072,0.026,0.0538,0.2648,1.103,-0.014,-9.552,0.000168,0.000112,-0.000241,,,,,,,,,,"$VNYMR,-083.453,+006.621,+000.072,+00.0260,+00.0538,+00.2648,+01.103,-00.014,-09.552,+00.000168,+00.000112,-00.000241*64"
140,5.600055554001301,vn200,VNYMR,-83.453,6.622,0.071,0.0258,0.0548,0.2631,1.134,-0.021,-9.547,-0.000136,-0.000184,-0.000372,,,,,,,,,,"$VNYMR,-083.453,+006.622,+000.071,+00.0258,+00.0548,+00.2631,+01.134,-00.021,-09.547,-00.000136,-00.000184,-00.000372*65"
141,5.640055586000017,vn200,VNYMR,-83.453,6.62,0.071,0.026,0.0548,0.265,1.082,0.008,-9.554,-0.000512,0.000721,0.000376,,,,,,,,,,"$VNYMR,-083.453,+006.620,+000.071,+00.0260,+00.0548,+00.2650,+01.082,+00.008,-09.554,-00.000512,+00.000721,+00.000376*67"
142,5.6800565060002555,vn200,VNYMR,-83.453,6.619,0.072,0.0267,0.0538,0.2626,1.111,-0.029,-9.508,0.000152,-0.000573,-0.000114,,,,,,,,,,"$VNYMR,-083.453,+006.619,+000.072,+00.0267,+00.0538,+00.2626,+01.111,-00.029,-09.508,+00.000152,-00.000573,-00.000114*6D"
143,5.720055649000642,vn200,VNYMR,-83.453,6.619,0.072,0.0253,0.0548,0.2643,1.108,-0.02,-9.514,0.000658,0.000584,0.000494,,,,,,,,,,"$VNYMR,-083.453,+006.619,+000.072,+00.0253,+00.0548,+00.2643,+01.108,-00.020,-09.514,+00.000658,+00.000584,+00.000494*6A"
144,5.760056143000838,vn200,VNYMR,-83.45,6.621,0.071,0.026,0.0533,0.2643,1.099,-0.0,-9.562,-0.000304,-0.000492,0.000726,,,,,,,,,,"$VNYMR,-083.450,+006.621,+000.071,+00.0260,+00.0533,+00.2643,+01.099,-00.000,-09.562,-00.000304,-00.000492,+00.000726*67"
145,5.800056211000992,vn200,VNYMR,-83.452,6.621,0.071,0.0257,0.0529,0.2648,1.123,-0.005,-9.554,7.2e-05,0.000719,-0.001333,,,,,,,,,,"$VNYMR,-083.452,+006.621,+000.071,+00.0257,+00.0529,+00.2648,+01.123,-00.005,-09.554,+00.000072,+00.000719,-00.001333*64"
146,5.840056113000173,vn200,VNYMR,-83.452,6.62,0.071,0.0269,0.0558,0.2629,1.11,-0.022,-9.581,-0.000212,0.000641,-0.000543,,,,,,,,,,"$VNYMR,-083.452,+006.620,+000.071,+00.0269,+00.0558,+00.2629,+01.110,-00.022,-09.581,-00.000212,+00.000641,-00.000543*6A"
147,5.880056274001618,vn200,VNYMR,-83.451,6.619,0.071,0.026,0.0546,0.2624,1.134,-0.022,-9.557,-0.001116,-0.000531,0.00029,,,,,,,,,,"$VNYMR,-083.451,+006.619,+000.071,+00.0260,+00.0546,+00.2624,+01.134,-00.022,-09.557,-00.001116,-00.000531,+00.000290*6E"
148,5.920055472000968,vn200,VNYMR,-83.451,6.618,0.07,0.0269,0.0521,0.2653,1.105,0.004,-9.56,-0.00053,3.3e-05,0.000645,,,,,,,,,,"$VNYMR,-083.451,+006.618,+000.070,+00.0269,+00.0521,+00.2653,+01.105,+00.004,-09.560,-00.000530,+00.000033,+00.000645*6E"
149,5.960058041000593,vn200,VNYMR,-83.452,6.619,0.069,0.0258,0.055,0.2617,1.105,-0.027,-9.536,0.000363,-0.000683,-0.001635,,,,,,,,,,"$VNYMR,-083.452,+006.619,+000.069,+00.0258,+00.0550,+00.2617,+01.105,-00.027,-09.536,+00.000363,-00.000683,-00.001635*69"
150,6.000057683000705,vn200,VNYMR,-83.452,6.617,0.069,0.0251,0.0553,0.2641,1.109,-0.015,-9.563,-0.000226,-5.1e-05,0.000274,,,,,,,,,,"$VNYMR,-083.452,+006.617,+000.069,+00.0251,+00.0553,+00.2641,+01.109,-00.015,-09.563,-00.000226,-00.000051,+00.000274*6A"
151,6.0400587520016416,vn200,VNYMR,-83.453,6.618,0.069,0.0258,0.0555,0.2631,1.098,-0.01,-9.538,-0.000278,0.000589,2e-05,,,,,,,,,,"$VNYMR,-083.453,+006.618,+000.069,+00.0258,+00.0555,+00.2631,+01.098,-00.010,-09.538,-00.000278,+00.000589,+00.000020*60"
152,6.080058393999934,vn200,VNYMR,-83.453,6.617,0.07,0.026,0.055,0.2617,1.112,-0.035,-9.558,0.000203,-0.000787,8.8e-05,,,,,,,,,,"$VNYMR,-083.453,+006.617,+000.070,+00.0260,+00.0550,+00.2617,+01.112,-00.035,-09.558,+00.000203,-00.000787,+00.000088*6D"
153,6.120057814001484,vn200,VNYMR,-83.453,6.617,0.07,0.0264,0.0526,0.2646,1.106,0.01,-9.537,-6.4e-05,-0.00052,0.000525,,,,,,,,,,"$VNYMR,-083.453,+006.617,+000.070,+00.0264,+00.0526,+00.2646,+01.106,+00.010,-09.537,-00.000064,-00.000520,+00.000525*69"
154,6.160058031000517,vn200,VNYMR,-83.452,6.617,0.073,0.0264,0.0529,0.2627,1.112,-0.013,-9.544,0.000302,-0.000934,0.000369,,,,,,,,,,"$VNYMR,-083.452,+006.617,+000.073,+00.0264,+00.0529,+00.2627,+01.112,-00.013,-09.544,+00.000302,-00.000934,+00.000369*65"
155,6.200059933000375,vn200,VNYMR,-83.452,6.617,0.073,0.0264,0.0541,0.265,1.099,-0.001,-9.52,-0.00049,2.6e-05,0.000572,,,,,,,,,,"$VNYMR,-083.452,+006.617,+000.073,+00.0264,+00.0541,+00.2650,+01.099,-00.001,-09.520,-00.000490,+00.000026,+00.000572*62"
156,6.240058149000106,vn200,VNYMR,-83.45,6.617,0.072,0.0267,0.0543,0.2646,1.116,-0.002,-9.557,0.000145,0.000339,0.000994,,,,,,,,,,"$VNYMR,-083.450,+006.617,+000.072,+00.0267,+00.0543,+00.2646,+01.116,-00.002,-09.557,+00.000145,+00.000339,+00.000994*60"
157,6.280056847001106,vn200,VNYMR,-83.449,6.617,0.071,0.0255,0.0543,0.2631,1.098,0.012,-9.521,0.000458,-0.00068,0.000286,,,,,,,,,,"$VNYMR,-083.449,+006.617,+000.071,+00.0255,+00.0543,+00.2631,+01.098,+00.012,-09.521,+00.000458,-00.000680,+00.000286*6B"
158,6.320056434000435,vn200,VNYMR,-83.449,6.618,0.07,0.026,0.0546,0.2629,1.111,-0.019,-9.563,0.000224,0.000252,0.000355,,,,,,,,,,"$VNYMR,-083.449,+006.618,+000.070,+00.0260,+00.0546,+00.2629,+01.111,-00.019,-09.563,+00.000224,+00.000252,+00.000355*6B"
159,6.3600559100013925,vn200,VNYMR,-83.449,6.62,0.071,0.025,0.0536,0.2629,1.11,-0.003,-9.551,0.000198,-0.000241,0.000388,,,,,,,,,,"$VNYMR,-083.449,+006.620,+000.071,+00.0250,+00.0536,+00.2629,+01.110,-00.003,-09.551,+00.000198,-00.000241,+00.000388*6E"
160,6.400056312000743,vn200,VNYMR,-83.449,6.62,0.072,0.0269,0.0524,0.2634,1.122,-0.037,-9.545,-0.000761,-0.000557,0.000143,,,,,,,,,,"$VNYMR,-083.449,+006.620,+000.072,+00.0269,+00.0524,+00.2634,+01.122,-00.037,-09.545,-00.000761,-00.000557,+00.000143*68"
161,6.440056288000051,vn200,VNYMR,-83.448,6.62,0.073,0.0255,0.0536,0.2638,1.115,0.001,-9.56,5.4e-05,-0.000799,-0.001017,,,,,,,,,,"$VNYMR,-083.448,+006.620,+000.073,+00.0255,+00.0536,+00.2638,+01.115,+00.001,-09.560,+00.000054,-00.000799,-00.001017*68"
162,6.480055818999972,vn200,VNYMR,-83.449,6.62,0.073,0.0258,0.056,0.2633,1.117,-0.005,-9.538,-0.00049,0.001174,-0.000575,,,,,,,,,,"$VNYMR,-083.449,+006.620,+000.073,+00.0258,+00.0560,+00.2633,+01.117,-00.005,-09.538,-00.000490,+00.001174,-00.000575*69"
163,6.520056203000422,vn200,VNYMR,-83.449,6.62,0.073,0.025,0.0546,0.2655,1.127,-0.02,-9.568,-0.000398,0.000399,0.000462,,,,,,,,,,"$VNYMR,-083.449,+006.620,+000.073,+00.0250,+00.0546,+00.2655,+01.127,-00.020,-09.568,-00.000398,+00.000399,+00.000462*6A"
164,6.560056160000386,vn200,VNYMR,-83.448,6.62,0.074,0.026,0.0538,0.2636,1.112,-0.011,-9.536,-0.000445,-0.000533,0.001517,,,,,,,,,,"$VNYMR,-083.448,+006.620,+000.074,+00.0260,+00.0538,+00.2636,+01.112,-00.011,-09.536,-00.000445,-00.000533,+00.001517*69"
165,6.600055468999926,vn200,VNYMR,-83.448,6.62,0.075,0.0265,0.0541,0.2626,1.121,0.001,-9.528,0.000123,-0.000227,1.6e-05,,,,,,,,,,"$VNYMR,-083.448,+006.620,+000.075,+00.0265,+00.0541,+00.2626,+01.121,+00.001,-09.528,+00.000123,-00.000227,+00.000016*6E"
166,6.640055649000715,vn200,VNYMR,-83.449,6.618,0.074,0.0262,0.0538,0.2629,1.123,-0.011,-9.52,-0.000667,0.001017,-0.000197,,,,,,,,,,"$VNYMR,-083.449,+006.618,+000.074,+00.0262,+00.0538,+00.2629,+01.123,-00.011,-09.520,-00.000667,+00.001017,-00.000197*67"
167,6.680058032001398,vn200,VNYMR,-83.45,6.618,0.075,0.0255,0.0541,0.2653,1.12,-0.026,-9.537,0.000562,-0.00027,-0.000472,,,,,,,,,,"$VNYMR,-083.450,+006.618,+000.075,+00.0255,+00.0541,+00.2653,+01.120,-00.026,-09.537,+00.000562,-00.000270,-00.000472*62"
168,6.720056064001255,vn200,VNYMR,-83.449,6.617,0.075,0.0265,0.0558,0.2643,1.104,-0.016,-9.57,-0.000849,-0.000467,-0.001326,,,,,,,,,,"$VNYMR,-083.449,+006.617,+000.075,+00.0265,+00.0558,+00.2643,+01.104,-00.016,-09.570,-00.000849,-00.000467,-00.001326*6C"
169,6.760058095000204,vn200,VNYMR,-83.45,6.619,0.075,0.0258,0.0543,0.2619,1.105,-0.011,-9.534,-0.000569,0.001132,0.000492,,,,,,,,,,"$VNYMR,-083.450,+006.619,+000.075,+00.0258,+00.0543,+00.2619,+01.105,-00.011,-09.534,-00.000569,+00.001132,+00.000492*65"
170,6.800056145000781,vn200,VNYMR,-83.452,6.621,0.075,0.0264,0.0541,0.2648,1.112,-0.032,-9.527,0.001183,-0.000827,-0.001058,,,,,,,,,,"$VNYMR,-083.452,+006.621,+000.075,+00.0264,+00.0541,+00.2648,+01.112,-00.032,-09.527,+00.001183,-00.000827,-00.001058*68"
171,6.840058936000787,vn200,VNYMR,-83.452,6.622,0.074,0.0255,0.0553,0.2634,1.109,0.01,-9.558,-0.000463,-0.000505,0.000504,,,,,,,,,,"$VNYMR,-083.452,+006.622,+000.074,+00.0255,+00.0553,+00.2634,+01.109,+00.010,-09.558,-00.000463,-00.000505,+00.000504*6E"
172,6.880056578000222,vn200,VNYMR,-83.452,6.621,0.074,0.0264,0.0548,0.2674,1.087,-0.018,-9.503,0.001029,0.000478,-2.4e-05,,,,,,,,,,"$VNYMR,-083.452,+006.621,+000.074,+00.0264,+00.0548,+00.2674,+01.087,-00.018,-09.503,+00.001029,+00.000478,-00.000024*67"
173,6.920058016999974,vn200,VNYMR,-83.453,6.619,0.075,0.0265,0.0536,0.2626,1.099,-0.018,-9.543,-0.00098,-0.000932,0.001176,,,,,,,,,,"$VNYMR,-083.453,+006.619,+000.075,+00.0265,+00.0536,+00.2626,+01.099,-00.018,-09.543,-00.000980,-00.000932,+00.001176*61"
174,6.9600570860002335,vn200,VNYMR,-83.454,6.619,0.076,0.025,0.0541,0.2641,1.116,-0.011,-9.538,0.000877,0.000867,0.000509,,,,,,,,,,"$VNYMR,-083.454,+006.619,+000.076,+00.0250,+00.0541,+00.2641,+01.116,-00.011,-09.538,+00.000877,+00.000867,+00.000509*64"
175,7.000057839000874,vn200,VNYMR,-83.455,6.62,0.076,0.025,0.0536,0.2634,1.1,0.002,-9.518,0.000276,-0.000145,0.000427,,,,,,,,,,"$VNYMR,-083.455,+006.620,+000.076,+00.0250,+00.0536,+00.2634,+01.100,+00.002,-09.518,+00.000276,-00.000145,+00.000427*65"
176,7.040058426000542,vn200,VNYMR,-83.455,6.62,0.077,0.0255,0.0529,0.2653,1.088,-0.01,-9.536,0.000189,-0.000251,0.000562,,,,,,,,,,"$VNYMR,-083.455,+006.620,+000.077,+00.0255,+00.0529,+00.2653,+01.088,-00.010,-09.536,+00.000189,-00.000251,+00.000562*63"
177,7.080057810000653,vn200,VNYMR,-83.455,6.621,0.076,0.0253,0.0531,0.2631,1.125,-0.005,-9.558,0.000454,-0.000104,0.000758,,,,,,,,,,"$VNYMR,-083.455,+006.621,+000.076,+00.0253,+00.0531,+00.2631,+01.125,-00.005,-09.558,+00.000454,-00.000104,+00.000758*6F"
178,7.120057878000807,vn200,VNYMR,-83.455,6.621,0.076,0.0262,0.0558,0.2641,1.082,-0.02,-9.522,0.000929,0.000945,-0.000555,,,,,,,,,,"$VNYMR,-083.455,+006.621,+000.076,+00.0262,+00.0558,+00.2641,+01.082,-00.020,-09.522,+00.000929,+00.000945,-00.000555*66"
179,7.16005650200168,vn200,VNYMR,-83.456,6.62,0.078,0.0257,0.0521,0.2629,1.084,-0.018,-9.557,-0.000153,0.000666,9.9e-05,,,,,,,,,,"$VNYMR,-083.456,+006.620,+000.078,+00.0257,+00.0521,+00.2629,+01.084,-00.018,-09.557,-00.000153,+00.000666,+00.000099*6D"
180,7.200059978000354,vn200,VNYMR,-83.456,6.62,0.078,0.0262,0.0541,0.2646,1.111,-0.003,-9.499,-0.000551,0.00032,-0.000468,,,,,,,,,,"$VNYMR,-083.456,+006.620,+000.078,+00.0262,+00.0541,+00.2646,+01.111,-00.003,-09.499,-00.000551,+00.000320,-00.000468*6D"
181,7.240057861001333,vn200,VNYMR,-83.455,6.622,0.078,0.0265,0.0543,0.261,1.12,-0.039,-9.559,0.000838,0.000134,0.000581,,,,,,,,,,"$VNYMR,-083.455,+006.622,+000.078,+00.0265,+00.0543,+00.2610,+01.120,-00.039,-09.559,+00.000838,+00.000134,+00.000581*6F"
182,7.280058319000091,vn200,VNYMR,-83.456,6.623,0.079,0.0255,0.0548,0.2643,1.118,-0.001,-9.533,-0.000686,2e-05,-0.001456,,,,,,,,,,"$VNYMR,-083.456,+006.623,+000.079,+00.0255,+00.0548,+00.2643,+01.118,-00.001,-09.533,-00.000686,+00.000020,-00.001456*6B"
183,7.320056665001175,vn200,VNYMR,-83.455,6.621,0.079,0.0253,0.0529,0.2634,1.085,-0.018,-9.527,0.00045,-0.000574,-0.000321,,,,,,,,,,"$VNYMR,-083.455,+006.621,+000.079,+00.0253,+00.0529,+00.2634,+01.085,-00.018,-09.527,+00.000450,-00.000574,-00.000321*68"
184,7.360056567000356,vn200,VNYMR,-83.456,6.62,0.079,0.0262,0.0543,0.2624,1.097,-0.009,-9.555,-0.000292,0.000622,0.000132,,,,,,,,,,"$VNYMR,-083.456,+006.620,+000.079,+00.0262,+00.0543,+00.2624,+01.097,-00.009,-09.555,-00.000292,+00.000622,+00.000132*6D"
185,7.400056228001631,vn200,VNYMR,-83.458,6.618,0.078,0.0262,0.0546,0.2665,1.099,0.0,-9.519,-0.000345,-0.000854,-0.000185,,,,,,,,,,"$VNYMR,-083.458,+006.618,+000.078,+00.0262,+00.0546,+00.2665,+01.099,+00.000,-09.519,-00.000345,-00.000854,-00.000185*68"
186,7.440056463001383,vn200,VNYMR,-83.457,6.617,0.077,0.0257,0.0541,0.2662,1.109,-0.006,-9.542,-0.000146,-0.000924,-0.000143,,,,,,,,,,"$VNYMR,-083.457,+006.617,+000.077,+00.0257,+00.0541,+00.2662,+01.109,-00.006,-09.542,-00.000146,-00.000924,-00.000143*6A"
187,7.480056124000839,vn200,VNYMR,-83.458,6.616,0.077,0.026,0.0543,0.2617,1.129,0.013,-9.525,-8.7e-05,-0.000466,-0.00085,,,,,,,,,,"$VNYMR,-083.458,+006.616,+000.077,+00.0260,+00.0543,+00.2617,+01.129,+00.013,-09.525,-00.000087,-00.000466,-00.000850*6D"
188,7.520056377999936,vn200,VNYMR,-83.458,6.617,0.076,0.0258,0.0543,0.2634,1.118,-0.026,-9.527,0.000309,-0.000281,-0.001095,,,,,,,,,,"$VNYMR,-083.458,+006.617,+000.076,+00.0258,+00.0543,+00.2634,+01.118,-00.026,-09.527,+00.000309,-00.000281,-00.001095*6B"
189,7.560057687000153,vn200,VNYMR,-83.458,6.618,0.078,0.0262,0.0553,0.2636,1.095,-0.021,-9.568,0.000629,0.000785,-0.000363,,,,,,,,,,"$VNYMR,-083.458,+006.618,+000.078,+00.0262,+00.0553,+00.2636,+01.095,-00.021,-09.568,+00.000629,+00.000785,-00.000363*63"
190,7.600058163001449,vn200,VNYMR,-83.457,6.618,0.078,0.0264,0.0521,0.2615,1.096,-0.018,-9.53,0.000929,0.000276,0.001203,,,,,,,,,,"$VNYMR,-083.457,+006.618,+000.078,+00.0264,+00.0521,+00.2615,+01.096,-00.018,-09.530,+00.000929,+00.000276,+00.001203*6C"
191,7.6400574350009265,vn200,VNYMR,-83.457,6.618,0.077,0.0265,0.055,0.2631,1.085,-0.019,-9.55,0.00021,-0.000627,-0.000449,,,,,,,,,,"$VNYMR,-083.457,+006.618,+000.077,+00.0265,+00.0550,+00.2631,+01.085,-00.019,-09.550,+00.000210,-00.000627,-00.000449*6F"
192,7.680057430001398,vn200,VNYMR,-83.457,6.62,0.079,0.026,0.0531,0.2638,1.094,-0.005,-9.52,0.000627,-0.000149,-9.4e-05,,,,,,,,,,"$VNYMR,-083.457,+006.620,+000.079,+00.0260,+00.0531,+00.2638,+01.094,-00.005,-09.520,+00.000627,-00.000149,-00.000094*60"
193,7.720056869000473,vn200,VNYMR,-83.456,6.62,0.078,0.026,0.0531,0.2648,1.117,-0.005,-9.543,-2e-06,-0.000121,0.000999,,,,,,,,,,"$VNYMR,-083.456,+006.620,+000.078,+00.0260,+00.0531,+00.2648,+01.117,-00.005,-09.543,-00.000002,-00.000121,+00.000999*63"
194,7.760056586001156,vn200,VNYMR,-83.456,6.619,0.078,0.0267,0.0546,0.2617,1.106,-0.045,-9.553,-0.000126,0.001372,-0.001129,,,,,,,,,,"$VNYMR,-083.456,+006.619,+000.078,+00.0267,+00.0546,+00.2617,+01.106,-00.045,-09.553,-00.000126,+00.001372,-00.001129*61"
195,7.800056523999956,vn200,VNYMR,-83.457,6.62,0.077,0.026,0.0538,0.2662,1.088,-0.021,-9.543,0.000326,0.000106,-0.000192,,,,,,,,,,"$VNYMR,-083.457,+006.620,+000.077,+00.0260,+00.0538,+00.2662,+01.088,-00.021,-09.543,+00.000326,+00.000106,-00.000192*68"
196,7.840056741000808,vn200,VNYMR,-83.456,6.618,0.079,0.0246,0.0531,0.2631,1.103,-0.043,-9.552,-0.000236,-0.00056,0.000793,,,,,,,,,,"$VNYMR,-083.456,+006.618,+000.079,+00.0246,+00.0531,+00.2631,+01.103,-00.043,-09.552,-00.000236,-00.000560,+00.000793*64"
197,7.880056458001491,vn200,VNYMR,-83.456,6.619,0.077,0.0255,0.0543,0.2617,1.107,-0.019,-9.523,-0.00117,0.000281,0.000584,,,,,,,,,,"$VNYMR,-083.456,+006.619,+000.077,+00.0255,+00.0543,+00.2617,+01.107,-00.019,-09.523,-00.001170,+00.000281,+00.000584*6F"
198,7.920056619001116,vn200,VNYMR,-83.457,6.618,0.077,0.0253,0.0553,0.2643,1.124,-0.005,-9.545,2.6e-05,0.000746,-0.000669,,,,,,,,,,"$VNYMR,-083.457,+006.618,+000.077,+00.0253,+00.0553,+00.2643,+01.124,-00.005,-09.545,+00.000026,+00.000746,-00.000669*68"
199,7.9600564100001066,vn200,VNYMR,-83.457,6.618,0.076,0.026,0.0536,0.2648,1.106,-0.01,-9.509,-1.9e-05,-0.000561,-6.2e-05,,,,,,,,,,"$VNYMR,-083.457,+006.618,+000.076,+00.0260,+00.0536,+00.2648,+01.106,-00.010,-09.509,-00.000019,-00.000561,-00.000062*6B"
200,8.000055923001128,vn200,VNYMR,-83.456,6.616,0.076,0.026,0.0529,0.2634,1.118,-0.038,-9.525,-0.000105,-0.000626,-0.000794,,,,,,,,,,"$VNYMR,-083.456,+006.616,+000.076,+00.0260,+00.0529,+00.2634,+01.118,-00.038,-09.525,-00.000105,-00.000626,-00.000794*68"
201,8.040059269000267,vn200,VNYMR,-83.456,6.616,0.077,0.026,0.0548,0.265,1.112,-0.046,-9.56,-0.000937,-0.000219,-0.000208,,,,,,,,,,"$VNYMR,-083.456,+006.616,+000.077,+00.0260,+00.0548,+00.2650,+01.112,-00.046,-09.560,-00.000937,-00.000219,-00.000208*6F"
202,8.080056374999913,vn200,VNYMR,-83.454,6.618,0.076,0.0253,0.0548,0.2638,1.137,-0.023,-9.525,0.000275,0.001033,0.001411,,,,,,,,,,"$VNYMR,-083.454,+006.618,+000.076,+00.0253,+00.0548,+00.2638,+01.137,-00.023,-09.525,+00.000275,+00.001033,+00.001411*66"
203,8.120054480001272,vn200,VNYMR,-83.453,6.618,0.078,0.0265,0.0543,0.2619,1.115,-0.036,-9.551,-1.1e-05,0.000252,-0.001561,,,,,,,,,,"$VNYMR,-083.453,+006.618,+000.078,+00.0265,+00.0543,+00.2619,+01.115,-00.036,-09.551,-00.000011,+00.000252,-00.001561*67"
204,8.160055234000538,vn200,VNYMR,-83.452,6.616,0.078,0.0262,0.0524,0.2624,1.115,-0.011,-9.534,3.6e-05,-0.000139,0.00018,,,,,,,,,,"$VNYMR,-083.452,+006.616,+000.078,+00.0262,+00.0524,+00.2624,+01.115,-00.011,-09.534,+00.000036,-00.000139,+00.000180*61"
205,8.20006235800065,vn200,VNYMR,-83.452,6.615,0.078,0.0255,0.0538,0.2653,1.107,-0.013,-9.574,-0.000213,-0.000626,-0.000459,,,,,,,,,,"$VNYMR,-083.452,+006.615,+000.078,+00.0255,+00.0538,+00.2653,+01.107,-00.013,-09.574,-00.000213,-00.000626,-00.000459*63"
206,8.240057964001608,vn200,VNYMR,-83.452,6.614,0.078,0.0262,0.0536,0.2624,1.085,-0.015,-9.522,-0.000227,0.000213,-0.000352,,,,,,,,,,"$VNYMR,-083.452,+006.614,+000.078,+00.0262,+00.0536,+00.2624,+01.085,-00.015,-09.522,-00.000227,+00.000213,-00.000352*69"
207,8.28005660600138,vn200,VNYMR,-83.452,6.614,0.077,0.0258,0.0555,0.2626,1.12,-0.002,-9.525,0.000297,0.001356,-0.000156,,,,,,,,,,"$VNYMR,-083.452,+006.614,+000.077,+00.0258,+00.0555,+00.2626,+01.120,-00.002,-09.525,+00.000297,+00.001356,-00.000156*6D"
208,8.32005882300109,vn200,VNYMR,-83.452,6.615,0.077,0.0248,0.0546,0.265,1.096,-0.018,-9.548,-0.001099,-0.000477,-3.1e-05,,,,,,,,,,"$VNYMR,-083.452,+006.615,+000.077,+00.0248,+00.0546,+00.2650,+01.096,-00.018,-09.548,-00.001099,-00.000477,-00.000031*6A"
209,8.360059299000568,vn200,VNYMR,-83.453,6.615,0.078,0.025,0.0543,0.2653,1.091,0.003,-9.527,-0.000167,0.000478,-0.001088,,,,,,,,,,"$VNYMR,-083.453,+006.615,+000.078,+00.0250,+00.0543,+00.2653,+01.091,+00.003,-09.527,-00.000167,+00.000478,-00.001088*62"
210,8.400058516001081,vn200,VNYMR,-83.452,6.614,0.078,0.026,0.0541,0.2648,1.113,-0.004,-9.537,-0.000345,0.000845,0.000901,,,,,,,,,,"$VNYMR,-083.452,+006.614,+000.078,+00.0260,+00.0541,+00.2648,+01.113,-00.004,-09.537,-00.000345,+00.000845,+00.000901*6D"
211,8.44005823200132,vn200,VNYMR,-83.453,6.616,0.078,0.0258,0.0548,0.2631,1.116,-0.037,-9.499,0.000342,-0.000268,0.000589,,,,,,,,,,"$VNYMR,-083.453,+006.616,+000.078,+00.0258,+00.0548,+00.2631,+01.116,-00.037,-09.499,+00.000342,-00.000268,+00.000589*6C"
212,8.480058486000416,vn200,VNYMR,-83.453,6.616,0.078,0.0248,0.0555,0.2634,1.134,-0.01,-9.531,8.3e-05,-0.000561,0.000526,,,,,,,,,,"$VNYMR,-083.453,+006.616,+000.078,+00.0248,+00.0555,+00.2634,+01.134,-00.010,-09.531,+00.000083,-00.000561,+00.000526*67"
213,8.520058666001205,vn200,VNYMR,-83.453,6.615,0.078,0.0257,0.0524,0.2636,1.096,-0.007,-9.529,-0.000887,-0.001264,7e-06,,,,,,,,,,"$VNYMR,-083.453,+006.615,+000.078,+00.0257,+00.0524,+00.2636,+01.096,-00.007,-09.529,-00.000887,-00.001264,+00.000007*67"
214,8.560057346001486,vn200,VNYMR,-83.451,6.615,0.077,0.025,0.0533,0.2648,1.115,-0.024,-9.552,-0.000614,0.00048,0.000128,,,,,,,,,,"$VNYMR,-083.451,+006.615,+000.077,+00.0250,+00.0533,+00.2648,+01.115,-00.024,-09.552,-00.000614,+00.000480,+00.000128*66"
215,8.600057044001005,vn200,VNYMR,-83.45,6.615,0.077,0.0265,0.0541,0.2641,1.101,-0.025,-9.542,-0.00069,-7.7e-05,-6.4e-05,,,,,,,,,,"$VNYMR,-083.450,+006.615,+000.077,+00.0265,+00.0541,+00.2641,+01.101,-00.025,-09.542,-00.000690,-00.000077,-00.000064*61"
216,8.640057427001011,vn200,VNYMR,-83.449,6.614,0.078,0.0265,0.0538,0.2634,1.097,0.003,-9.528,0.000867,0.000158,-0.000646,,,,,,,,,,"$VNYMR,-083.449,+006.614,+000.078,+00.0265,+00.0538,+00.2634,+01.097,+00.003,-09.528,+00.000867,+00.000158,-00.000646*67"
217,8.680058551000911,vn200,VNYMR,-83.449,6.613,0.078,0.0267,0.0558,0.2634,1.102,-0.008,-9.5,-0.000679,0.000134,-0.000268,,,,,,,,,,"$VNYMR,-083.449,+006.613,+000.078,+00.0267,+00.0558,+00.2634,+01.102,-00.008,-09.500,-00.000679,+00.000134,-00.000268*6B"
218,8.720058287000938,vn200,VNYMR,-83.449,6.613,0.077,0.0267,0.0543,0.2617,1.112,-0.001,-9.54,0.000596,0.000557,-0.000142,,,,,,,,,,"$VNYMR,-083.449,+006.613,+000.077,+00.0267,+00.0543,+00.2617,+01.112,-00.001,-09.540,+00.000596,+00.000557,-00.000142*6D"
219,8.760058392001156,vn200,VNYMR,-83.449,6.613,0.076,0.0267,0.0543,0.2636,1.128,-0.004,-9.526,-0.00094,-0.000943,0.001108,,,,,,,,,,"$VNYMR,-083.449,+006.613,+000.076,+00.0267,+00.0543,+00.2636,+01.128,-00.004,-09.526,-00.000940,-00.000943,+00.001108*64"
220,8.800056683001458,vn200,VNYMR,-83.452,6.615,0.077,0.0255,0.0528,0.2622,1.086,-0.046,-9.549,0.000153,0.000424,3.3e-05,,,,,,,,,,"$VNYMR,-083.452,+006.615,+000.077,+00.0255,+00.0528,+00.2622,+01.086,-00.046,-09.549,+00.000153,+00.000424,+00.000033*64"
221,8.840058806999878,vn200,VNYMR,-83.45,6.615,0.078,0.0267,0.0538,0.2636,1.139,0.034,-9.535,-0.000276,-0.001094,0.000928,,,,,,,,,,"$VNYMR,-083.450,+006.615,+000.078,+00.0267,+00.0538,+00.2636,+01.139,+00.034,-09.535,-00.000276,-00.001094,+00.000928*68"
222,8.880056006000814,vn200,VNYMR,-83.45,6.616,0.077,0.0265,0.0538,0.2636,1.105,-0.02,-9.534,-0.000238,-0.000523,0.000325,,,,,,,,,,"$VNYMR,-083.450,+006.616,+000.077,+00.0265,+00.0538,+00.2636,+01.105,-00.020,-09.534,-00.000238,-00.000523,+00.000325*6E"
223,8.920056408000164,vn200,VNYMR,-83.45,6.614,0.077,0.0255,0.0553,0.2655,1.103,0.008,-9.546,-0.000242,3.9e-05,0.000575,,,,,,,,,,"$VNYMR,-083.450,+006.614,+000.077,+00.0255,+00.0553,+00.2655,+01.103,+00.008,-09.546,-00.000242,+00.000039,+00.000575*6E"
224,8.960056476000318,vn200,VNYMR,-83.448,6.613,0.078,0.0255,0.0533,0.2629,1.097,0.006,-9.525,0.001148,0.001155,0.000967,,,,,,,,,,"$VNYMR,-083.448,+006.613,+000.078,+00.0255,+00.0533,+00.2629,+01.097,+00.006,-09.525,+00.001148,+00.001155,+00.000967*6E"
225,9.000056397000662,vn200,VNYMR,-83.45,6.613,0.079,0.0257,0.0546,0.2653,1.11,-0.032,-9.574,-0.00033,-0.001318,-0.000926,,,,,,,,,,"$VNYMR,-083.450,+006.613,+000.079,+00.0257,+00.0546,+00.2653,+01.110,-00.032,-09.574,-00.000330,-00.001318,-00.000926*64"
226,9.04005792800126,vn200,VNYMR,-83.45,6.614,0.079,0.026,0.0533,0.2629,1.129,-0.012,-9.542,0.00152,-0.000524,0.00087,,,,,,,,,,"$VNYMR,-083.450,+006.614,+000.079,+00.0260,+00.0533,+00.2629,+01.129,-00.012,-09.542,+00.001520,-00.000524,+00.000870*69"
227,9.080057349001436,vn200,VNYMR,-83.451,6.614,0.08,0.0255,0.0536,0.2636,1.106,-0.015,-9.53,-0.000372,-0.000705,-0.000536,,,,,,,,,,"$VNYMR,-083.451,+006.614,+000.080,+00.0255,+00.0536,+00.2636,+01.106,-00.015,-09.530,-00.000372,-00.000705,-00.000536*62"
228,9.120056639001632,vn200,VNYMR,-83.451,6.613,0.079,0.0255,0.055,0.2655,1.111,-0.024,-9.528,-0.000324,-0.001345,2.3e-05,,,,,,,,,,"$VNYMR,-083.451,+006.613,+000.079,+00.0255,+00.0550,+00.2655,+01.111,-00.024,-09.528,-00.000324,-00.001345,+00.000023*6E"
229,9.160056671000348,vn200,VNYMR,-83.45,6.614,0.08,0.0264,0.0521,0.265,1.098,-0.017,-9.544,0.001294,-0.001468,0.000924,,,,,,,,,,"$VNYMR,-083.450,+006.614,+000.080,+00.0264,+00.0521,+00.2650,+01.098,-00.017,-09.544,+00.001294,-00.001468,+00.000924*6E"
230,9.200059684000735,vn200,VNYMR,-83.449,6.613,0.079,0.0255,0.0533,0.2653,1.101,0.012,-9.531,-0.000698,0.000123,-0.00096,,,,,,,,,,"$VNYMR,-083.449,+006.613,+000.079,+00.0255,+00.0533,+00.2653,+01.101,+00.012,-09.531,-00.000698,+00.000123,-00.000960*61"
231,9.240057549000994,vn200,VNYMR,-83.45,6.614,0.078,0.0251,0.0545,0.2631,1.112,0.006,-9.552,0.000316,-0.000614,0.000605,,,,,,,,,,"$VNYMR,-083.450,+006.614,+000.078,+00.0251,+00.0545,+00.2631,+01.112,+00.006,-09.552,+00.000316,-00.000614,+00.000605*66"
232,9.28005589500026,vn200,VNYMR,-83.451,6.615,0.076,0.0253,0.0541,0.2619,1.114,-0.006,-9.557,7.2e-05,0.000507,-0.00017,,,,,,,,,,"$VNYMR,-083.451,+006.615,+000.076,+00.0253,+00.0541,+00.2619,+01.114,-00.006,-09.557,+00.000072,+00.000507,-00.000170*64"
233,9.320056538001154,vn200,VNYMR,-83.453,6.615,0.076,0.026,0.0546,0.2655,1.088,-0.033,-9.529,0.000326,-0.000666,0.000552,,,,,,,,,,"$VNYMR,-083.453,+006.615,+000.076,+00.0260,+00.0546,+00.2655,+01.088,-00.033,-09.529,+00.000326,-00.000666,+00.000552*60"
